[
  {
    "osm_id": 234494737,
    "osm_type": "node",
    "name": "Mamma Roma",
    "lat": 50.8240271,
    "lon": 4.3593328,
    "amenity": "restaurant",
    "cuisine": "pizza",
    "outdoor_seating": null,
    "wheelchair": null,
    "diet_vegan": "no",
    "diet_vegetarian": "yes",
    "diet_halal": null,
    "osm_phone": "+32 2 544 14 02",
    "osm_website": "https://www.mammaroma.be/",
    "osm_opening_hours": "Su-We 12:00-22:00; Th-Sa 12:00-22:30"
  },
  {
    "osm_id": 305178282,
    "osm_type": "node",
    "name": "Le Médicis",
    "lat": 50.8385577,
    "lon": 4.4633861,
    "amenity": "restaurant",
    "cuisine": null,
    "outdoor_seating": null,
    "wheelchair": null,
    "diet_vegan": null,
    "diet_vegetarian": null,
    "diet_halal": null,
    "osm_phone": null,
    "osm_website": null,
    "osm_opening_hours": null
  },
  {
    "osm_id": 417672904,
    "osm_type": "node",
    "name": "Brasserie Gribaumont",
    "lat": 50.8372957,
    "lon": 4.4158964,
    "amenity": "restaurant",
    "cuisine": null,
    "outdoor_seating": null,
    "wheelchair": null,
    "diet_vegan": null,
    "diet_vegetarian": null,
    "diet_halal": null,
    "osm_phone": null,
    "osm_website": null,
    "osm_opening_hours": null
  },
  {
    "osm_id": 563976569,
    "osm_type": "node",
    "name": "Ristorante la Renna",
    "lat": 50.870472,
    "lon": 4.3951427,
    "amenity": "restaurant",
    "cuisine": "italian",
    "outdoor_seating": null,
    "wheelchair": null,
    "diet_vegan": null,
    "diet_vegetarian": null,
    "diet_halal": null,
    "osm_phone": null,
    "osm_website": null,
    "osm_opening_hours": null
  },
  {
    "osm_id": 615505015,
    "osm_type": "node",
    "name": "Le Belle-Vue",
    "lat": 50.8246237,
    "lon": 4.3358874,
    "amenity": "restaurant",
    "cuisine": "french",
    "outdoor_seating": null,
    "wheelchair": null,
    "diet_vegan": null,
    "diet_vegetarian": null,
    "diet_halal": null,
    "osm_phone": null,
    "osm_website": null,
    "osm_opening_hours": null
  },
  {
    "osm_id": 698638650,
    "osm_type": "node",
    "name": "Food Inspiration",
    "lat": 50.8368952,
    "lon": 4.3881907,
    "amenity": "restaurant",
    "cuisine": null,
    "outdoor_seating": null,
    "wheelchair": null,
    "diet_vegan": null,
    "diet_vegetarian": null,
    "diet_halal": null,
    "osm_phone": "+32 2 736 82 34",
    "osm_website": "https://www.foodinspiration.store/",
    "osm_opening_hours": "Mo-Fr 09:45-17:15"
  },
  {
    "osm_id": 724211846,
    "osm_type": "node",
    "name": "Miyako",
    "lat": 50.8376219,
    "lon": 4.3866253,
    "amenity": "restaurant",
    "cuisine": "japanese",
    "outdoor_seating": null,
    "wheelchair": null,
    "diet_vegan": null,
    "diet_vegetarian": null,
    "diet_halal": null,
    "osm_phone": "+32 2 734 06 64",
    "osm_website": null,
    "osm_opening_hours": "Mo-Fr 12:00-14:30,18:00-23:00, Sa,Su 18:00-23:00"
  },
  {
    "osm_id": 766847696,
    "osm_type": "node",
    "name": "Chez Amina",
    "lat": 50.838439,
    "lon": 4.382078,
    "amenity": "restaurant",
    "cuisine": null,
    "outdoor_seating": null,
    "wheelchair": "no",
    "diet_vegan": null,
    "diet_vegetarian": null,
    "diet_halal": null,
    "osm_phone": null,
    "osm_website": null,
    "osm_opening_hours": null
  },
  {
    "osm_id": 766893278,
    "osm_type": "node",
    "name": "La Couronne",
    "lat": 50.8591422,
    "lon": 4.3784109,
    "amenity": "restaurant",
    "cuisine": null,
    "outdoor_seating": null,
    "wheelchair": null,
    "diet_vegan": null,
    "diet_vegetarian": null,
    "diet_halal": null,
    "osm_phone": null,
    "osm_website": null,
    "osm_opening_hours": null
  },
  {
    "osm_id": 826830634,
    "osm_type": "node",
    "name": "Belgo Nero",
    "lat": 50.8333185,
    "lon": 4.3565909,
    "amenity": "restaurant",
    "cuisine": null,
    "outdoor_seating": null,
    "wheelchair": null,
    "diet_vegan": null,
    "diet_vegetarian": "no",
    "diet_halal": null,
    "osm_phone": null,
    "osm_website": null,
    "osm_opening_hours": null
  },
  {
    "osm_id": 870363570,
    "osm_type": "node",
    "name": "Moods",
    "lat": 50.8465296,
    "lon": 4.3591367,
    "amenity": "restaurant",
    "cuisine": null,
    "outdoor_seating": "no",
    "wheelchair": null,
    "diet_vegan": null,
    "diet_vegetarian": null,
    "diet_halal": null,
    "osm_phone": "+32 2 513 80 29",
    "osm_website": "https://www.moodsbxl.be/",
    "osm_opening_hours": "Mo-Fr 10:30-24:00; Sa 16:30-24:00; Su off"
  },
  {
    "osm_id": 1121797659,
    "osm_type": "node",
    "name": "Thai Cafe",
    "lat": 50.822537,
    "lon": 4.3547235,
    "amenity": "restaurant",
    "cuisine": "asian",
    "outdoor_seating": null,
    "wheelchair": null,
    "diet_vegan": null,
    "diet_vegetarian": null,
    "diet_halal": null,
    "osm_phone": null,
    "osm_website": null,
    "osm_opening_hours": null
  },
  {
    "osm_id": 1138938717,
    "osm_type": "node",
    "name": "Mont Liban",
    "lat": 50.8302393,
    "lon": 4.3589244,
    "amenity": "restaurant",
    "cuisine": "lebanese",
    "outdoor_seating": null,
    "wheelchair": null,
    "diet_vegan": null,
    "diet_vegetarian": null,
    "diet_halal": null,
    "osm_phone": "+32 2 537 71 31",
    "osm_website": null,
    "osm_opening_hours": null
  },
  {
    "osm_id": 1189927201,
    "osm_type": "node",
    "name": "O Liban",
    "lat": 50.8172833,
    "lon": 4.3667435,
    "amenity": "restaurant",
    "cuisine": "lebanese",
    "outdoor_seating": null,
    "wheelchair": null,
    "diet_vegan": null,
    "diet_vegetarian": null,
    "diet_halal": null,
    "osm_phone": null,
    "osm_website": "https://www.oliban.be",
    "osm_opening_hours": "Tu-Sa 10:30-23:00; Su 10:30-22:30"
  },
  {
    "osm_id": 1221337369,
    "osm_type": "node",
    "name": "Benvenutto",
    "lat": 50.875071,
    "lon": 4.3404797,
    "amenity": "restaurant",
    "cuisine": "pizza",
    "outdoor_seating": null,
    "wheelchair": null,
    "diet_vegan": null,
    "diet_vegetarian": null,
    "diet_halal": null,
    "osm_phone": null,
    "osm_website": null,
    "osm_opening_hours": null
  },
  {
    "osm_id": 1221352577,
    "osm_type": "node",
    "name": "Acropolis",
    "lat": 50.8691124,
    "lon": 4.3283387,
    "amenity": "restaurant",
    "cuisine": "greek",
    "outdoor_seating": null,
    "wheelchair": null,
    "diet_vegan": null,
    "diet_vegetarian": null,
    "diet_halal": null,
    "osm_phone": null,
    "osm_website": null,
    "osm_opening_hours": null
  },
  {
    "osm_id": 1259503545,
    "osm_type": "node",
    "name": "La Luna",
    "lat": 50.8628657,
    "lon": 4.3065669,
    "amenity": "restaurant",
    "cuisine": null,
    "outdoor_seating": null,
    "wheelchair": null,
    "diet_vegan": null,
    "diet_vegetarian": null,
    "diet_halal": null,
    "osm_phone": null,
    "osm_website": null,
    "osm_opening_hours": null
  },
  {
    "osm_id": 1286089058,
    "osm_type": "node",
    "name": "Khayma Grill",
    "lat": 50.8751812,
    "lon": 4.3539078,
    "amenity": "restaurant",
    "cuisine": null,
    "outdoor_seating": null,
    "wheelchair": null,
    "diet_vegan": null,
    "diet_vegetarian": null,
    "diet_halal": null,
    "osm_phone": null,
    "osm_website": null,
    "osm_opening_hours": null
  },
  {
    "osm_id": 1286129914,
    "osm_type": "node",
    "name": "Roquette",
    "lat": 50.8676117,
    "lon": 4.3410749,
    "amenity": "restaurant",
    "cuisine": "waffle",
    "outdoor_seating": null,
    "wheelchair": null,
    "diet_vegan": null,
    "diet_vegetarian": null,
    "diet_halal": null,
    "osm_phone": null,
    "osm_website": null,
    "osm_opening_hours": null
  },
  {
    "osm_id": 1493177062,
    "osm_type": "node",
    "name": "Village du Vietnam",
    "lat": 50.8434965,
    "lon": 4.4102091,
    "amenity": "restaurant",
    "cuisine": "vietnamese",
    "outdoor_seating": null,
    "wheelchair": null,
    "diet_vegan": null,
    "diet_vegetarian": null,
    "diet_halal": null,
    "osm_phone": null,
    "osm_website": null,
    "osm_opening_hours": null
  },
  {
    "osm_id": 1632512990,
    "osm_type": "node",
    "name": "Le Péché Gourmand",
    "lat": 50.8373315,
    "lon": 4.4313658,
    "amenity": "restaurant",
    "cuisine": null,
    "outdoor_seating": null,
    "wheelchair": null,
    "diet_vegan": null,
    "diet_vegetarian": null,
    "diet_halal": null,
    "osm_phone": null,
    "osm_website": null,
    "osm_opening_hours": null
  }
]