[
  {
    "osm_id": 60574471,
    "osm_type": "node",
    "name": "L'Ascoli",
    "address": "Hector Henneaulaan 136, 1930, Zaventem",
    "lat": 50.8801916,
    "lng": 4.4689012,
    "cuisine": "Italian",
    "amenity": "restaurant",
    "website": "http://ascolizaventem.weebly.com/",
    "phone": "+32 2 725 45 45",
    "opening_hours": "",
    "wheelchair": "",
    "outdoor_seating": "",
    "rating": null,
    "review_count": null
  },
  {
    "osm_id": 60574472,
    "osm_type": "node",
    "name": "Taverne",
    "address": "Brussels, Belgium",
    "lat": 50.8811825,
    "lng": 4.4743195,
    "cuisine": "Restaurant",
    "amenity": "restaurant",
    "website": "",
    "phone": "",
    "opening_hours": "",
    "wheelchair": "",
    "outdoor_seating": "",
    "rating": null,
    "review_count": null
  },
  {
    "osm_id": 60574473,
    "osm_type": "node",
    "name": "Pizza Romano",
    "address": "Brussels, Belgium",
    "lat": 50.8819038,
    "lng": 4.4731246,
    "cuisine": "Restaurant",
    "amenity": "restaurant",
    "website": "https://piazzaromano.be/",
    "phone": "+32 2 725 66 86",
    "opening_hours": "Mo-Fr 12:00-14:30,18:00-22:30; Sa 18:00-22:30",
    "wheelchair": "",
    "outdoor_seating": "",
    "rating": null,
    "review_count": null
  },
  {
    "osm_id": 234494737,
    "osm_type": "node",
    "name": "Mamma Roma",
    "address": "Brussels, Belgium",
    "lat": 50.8240271,
    "lng": 4.3593328,
    "cuisine": "Italian",
    "amenity": "restaurant",
    "website": "",
    "phone": "",
    "opening_hours": "Su-We 12:00-22:00; Th-Sa 12:00-22:30",
    "wheelchair": "",
    "outdoor_seating": "",
    "rating": null,
    "review_count": null
  },
  {
    "osm_id": 234524306,
    "osm_type": "node",
    "name": "L'Ultime Atome",
    "address": "Brussels, Belgium",
    "lat": 50.8359295,
    "lng": 4.3644108,
    "cuisine": "Restaurant",
    "amenity": "restaurant",
    "website": "",
    "phone": "",
    "opening_hours": "Su-Th 08:00-00:30; Fr-Sa 08:00-01:00",
    "wheelchair": "no",
    "outdoor_seating": "yes",
    "rating": null,
    "review_count": null
  },
  {
    "osm_id": 234524310,
    "osm_type": "node",
    "name": "Le clan des Belges",
    "address": "Brussels, Belgium",
    "lat": 50.8356075,
    "lng": 4.3648084,
    "cuisine": "Local",
    "amenity": "restaurant",
    "website": "",
    "phone": "",
    "opening_hours": "",
    "wheelchair": "limited",
    "outdoor_seating": "pedestrian_zone",
    "rating": null,
    "review_count": null
  },
  {
    "osm_id": 234527377,
    "osm_type": "node",
    "name": "Quick",
    "address": "Brussels, Belgium",
    "lat": 50.8356207,
    "lng": 4.3558051,
    "cuisine": "American",
    "amenity": "fast_food",
    "website": "https://www.quick.be",
    "phone": "",
    "opening_hours": "Su-Th 10:00-23:00, Sa,Su 00:00-06:00, Fr,Sa 10:00-24:00",
    "wheelchair": "yes",
    "outdoor_seating": "yes",
    "rating": null,
    "review_count": null
  },
  {
    "osm_id": 234527392,
    "osm_type": "node",
    "name": "Quick",
    "address": "Brussels, Belgium",
    "lat": 50.8362952,
    "lng": 4.3375974,
    "cuisine": "American",
    "amenity": "fast_food",
    "website": "https://www.quick.be",
    "phone": "",
    "opening_hours": "Mo-Su 09:30-22:30",
    "wheelchair": "",
    "outdoor_seating": "no",
    "rating": null,
    "review_count": null
  },
  {
    "osm_id": 257508305,
    "osm_type": "node",
    "name": "Quick",
    "address": "Brussels, Belgium",
    "lat": 50.8178831,
    "lng": 4.3641352,
    "cuisine": "American",
    "amenity": "fast_food",
    "website": "https://www.quick.be",
    "phone": "",
    "opening_hours": "Mo-Su 11:00-23:00",
    "wheelchair": "",
    "outdoor_seating": "",
    "rating": null,
    "review_count": null
  },
  {
    "osm_id": 303294908,
    "osm_type": "node",
    "name": "Restaurant Pirate-Café Brasserie",
    "address": "Brussels, Belgium",
    "lat": 50.8680663,
    "lng": 4.4522992,
    "cuisine": "Restaurant",
    "amenity": "restaurant",
    "website": "",
    "phone": "",
    "opening_hours": "",
    "wheelchair": "",
    "outdoor_seating": "",
    "rating": null,
    "review_count": null
  },
  {
    "osm_id": 303986897,
    "osm_type": "node",
    "name": "Restaurant Cosmopolite",
    "address": "Brussels, Belgium",
    "lat": 50.8787444,
    "lng": 4.4565767,
    "cuisine": "Restaurant",
    "amenity": "restaurant",
    "website": "",
    "phone": "",
    "opening_hours": "",
    "wheelchair": "",
    "outdoor_seating": "",
    "rating": null,
    "review_count": null
  },
  {
    "osm_id": 305178282,
    "osm_type": "node",
    "name": "Le Médicis",
    "address": "Brussels, Belgium",
    "lat": 50.8385577,
    "lng": 4.4633861,
    "cuisine": "Restaurant",
    "amenity": "restaurant",
    "website": "",
    "phone": "",
    "opening_hours": "",
    "wheelchair": "",
    "outdoor_seating": "",
    "rating": null,
    "review_count": null
  },
  {
    "osm_id": 305362416,
    "osm_type": "node",
    "name": "La Perle du Désert",
    "address": "Brussels, Belgium",
    "lat": 50.8661866,
    "lng": 4.453252,
    "cuisine": "Restaurant",
    "amenity": "restaurant",
    "website": "",
    "phone": "",
    "opening_hours": "Tu-Su 11:30-15:00,18:30-23:00",
    "wheelchair": "",
    "outdoor_seating": "",
    "rating": null,
    "review_count": null
  },
  {
    "osm_id": 305362417,
    "osm_type": "node",
    "name": "Station 3",
    "address": "Brussels, Belgium",
    "lat": 50.8664184,
    "lng": 4.4527514,
    "cuisine": "Chinese",
    "amenity": "restaurant",
    "website": "",
    "phone": "",
    "opening_hours": "",
    "wheelchair": "",
    "outdoor_seating": "",
    "rating": null,
    "review_count": null
  },
  {
    "osm_id": 305672458,
    "osm_type": "node",
    "name": "Restaurant Sirtaki",
    "address": "Brussels, Belgium",
    "lat": 50.8660914,
    "lng": 4.4419858,
    "cuisine": "Restaurant",
    "amenity": "restaurant",
    "website": "",
    "phone": "",
    "opening_hours": "",
    "wheelchair": "",
    "outdoor_seating": "",
    "rating": null,
    "review_count": null
  },
  {
    "osm_id": 305672462,
    "osm_type": "node",
    "name": "Stradur",
    "address": "Brussels, Belgium",
    "lat": 50.8673783,
    "lng": 4.4478478,
    "cuisine": "Restaurant",
    "amenity": "restaurant",
    "website": "",
    "phone": "",
    "opening_hours": "",
    "wheelchair": "",
    "outdoor_seating": "",
    "rating": null,
    "review_count": null
  },
  {
    "osm_id": 306122013,
    "osm_type": "node",
    "name": "Mamma Roma",
    "address": "Brussels, Belgium",
    "lat": 50.8275767,
    "lng": 4.3711196,
    "cuisine": "Italian",
    "amenity": "restaurant",
    "website": "",
    "phone": "",
    "opening_hours": "Mo-Su 12:00-22:00; Th-Sa 12:00-22:30",
    "wheelchair": "no",
    "outdoor_seating": "",
    "rating": null,
    "review_count": null
  },
  {
    "osm_id": 307776789,
    "osm_type": "node",
    "name": "Global Village",
    "address": "Brussels, Belgium",
    "lat": 50.870262,
    "lng": 4.4635092,
    "cuisine": "Restaurant",
    "amenity": "restaurant",
    "website": "",
    "phone": "",
    "opening_hours": "",
    "wheelchair": "",
    "outdoor_seating": "",
    "rating": null,
    "review_count": null
  },
  {
    "osm_id": 310744609,
    "osm_type": "node",
    "name": "Domino's",
    "address": "Grote Daalstraat 2, 1930, Zaventem",
    "lat": 50.8789262,
    "lng": 4.4727578,
    "cuisine": "Italian",
    "amenity": "fast_food",
    "website": "https://www.dominos.be/",
    "phone": "",
    "opening_hours": "Mo-Su 11:30-22:00",
    "wheelchair": "",
    "outdoor_seating": "",
    "rating": null,
    "review_count": null
  },
  {
    "osm_id": 311741388,
    "osm_type": "node",
    "name": "La Perla",
    "address": "Leuvensesteenweg 496, 1930",
    "lat": 50.8717468,
    "lng": 4.4763063,
    "cuisine": "Italian",
    "amenity": "restaurant",
    "website": "https://www.ristorantelaperla.be/",
    "phone": "+32 2 310 53 23",
    "opening_hours": "Mo-Fr 12:00-14:00,18:30-22:00; Sa 18:30-22:00",
    "wheelchair": "",
    "outdoor_seating": "",
    "rating": null,
    "review_count": null
  },
  {
    "osm_id": 312978400,
    "osm_type": "node",
    "name": "Restaurant Sava",
    "address": "Steenokkerzeelstraat 127",
    "lat": 50.8882335,
    "lng": 4.4743156,
    "cuisine": "Restaurant",
    "amenity": "restaurant",
    "website": "",
    "phone": "",
    "opening_hours": "",
    "wheelchair": "",
    "outdoor_seating": "",
    "rating": null,
    "review_count": null
  },
  {
    "osm_id": 315309544,
    "osm_type": "node",
    "name": "Restaurant Lotus",
    "address": "Brussels, Belgium",
    "lat": 50.8647703,
    "lng": 4.4576332,
    "cuisine": "Restaurant",
    "amenity": "restaurant",
    "website": "",
    "phone": "",
    "opening_hours": "Tu-Su 12:00-14:00,18:00-22:00, Tu 18:00-22:00",
    "wheelchair": "",
    "outdoor_seating": "",
    "rating": null,
    "review_count": null
  },
  {
    "osm_id": 316685918,
    "osm_type": "node",
    "name": "Frituur Plum Pataat",
    "address": "Brussels, Belgium",
    "lat": 50.9129683,
    "lng": 4.4338694,
    "cuisine": "Friture",
    "amenity": "fast_food",
    "website": "",
    "phone": "",
    "opening_hours": "",
    "wheelchair": "",
    "outdoor_seating": "",
    "rating": null,
    "review_count": null
  },
  {
    "osm_id": 331953377,
    "osm_type": "node",
    "name": "Skievelat",
    "address": "Brussels, Belgium",
    "lat": 50.8415512,
    "lng": 4.3525901,
    "cuisine": "Regional",
    "amenity": "restaurant",
    "website": "",
    "phone": "",
    "opening_hours": "12:00-22:30",
    "wheelchair": "",
    "outdoor_seating": "",
    "rating": null,
    "review_count": null
  },
  {
    "osm_id": 344595501,
    "osm_type": "node",
    "name": "Quick Zaventem Arrivals",
    "address": "1930",
    "lat": 50.8976502,
    "lng": 4.4838489,
    "cuisine": "American",
    "amenity": "fast_food",
    "website": "",
    "phone": "",
    "opening_hours": "Mo-Su 11:00-22:00",
    "wheelchair": "",
    "outdoor_seating": "",
    "rating": null,
    "review_count": null
  },
  {
    "osm_id": 344847064,
    "osm_type": "node",
    "name": "Neuf Neuf Dragon",
    "address": "Brussels, Belgium",
    "lat": 50.8358731,
    "lng": 4.3875467,
    "cuisine": "Chinese",
    "amenity": "fast_food",
    "website": "",
    "phone": "",
    "opening_hours": "",
    "wheelchair": "",
    "outdoor_seating": "",
    "rating": null,
    "review_count": null
  },
  {
    "osm_id": 347996071,
    "osm_type": "node",
    "name": "La Terrasse",
    "address": "Brussels, Belgium",
    "lat": 50.8389893,
    "lng": 4.3982882,
    "cuisine": "Restaurant",
    "amenity": "restaurant",
    "website": "",
    "phone": "",
    "opening_hours": "Mo-Su 11:00-23:00",
    "wheelchair": "yes",
    "outdoor_seating": "yes",
    "rating": null,
    "review_count": null
  },
  {
    "osm_id": 347996074,
    "osm_type": "node",
    "name": "Sel et Sucre",
    "address": "Brussels, Belgium",
    "lat": 50.8388547,
    "lng": 4.3986727,
    "cuisine": "Crepe",
    "amenity": "fast_food",
    "website": "",
    "phone": "",
    "opening_hours": "",
    "wheelchair": "",
    "outdoor_seating": "",
    "rating": null,
    "review_count": null
  },
  {
    "osm_id": 348031957,
    "osm_type": "node",
    "name": "Poule & Poulette",
    "address": "Brussels, Belgium",
    "lat": 50.8375171,
    "lng": 4.3807972,
    "cuisine": "Chicken",
    "amenity": "restaurant",
    "website": "",
    "phone": "",
    "opening_hours": "Mo,Th 12:00-14:00,17:30-21:00; Fr 12:00-14:00,17:30-22:30; Sa 12:00-22:00; Su 12:00-21:00",
    "wheelchair": "",
    "outdoor_seating": "",
    "rating": null,
    "review_count": null
  },
  {
    "osm_id": 352862857,
    "osm_type": "node",
    "name": "Terracotta",
    "address": "Brussels, Belgium",
    "lat": 50.8366701,
    "lng": 4.3887019,
    "cuisine": "Italian",
    "amenity": "restaurant",
    "website": "",
    "phone": "",
    "opening_hours": "",
    "wheelchair": "",
    "outdoor_seating": "yes",
    "rating": null,
    "review_count": null
  },
  {
    "osm_id": 353002715,
    "osm_type": "node",
    "name": "Manhattn's Burger",
    "address": "Brussels, Belgium",
    "lat": 50.8390124,
    "lng": 4.3981764,
    "cuisine": "Restaurant",
    "amenity": "restaurant",
    "website": "",
    "phone": "",
    "opening_hours": "Mo-Su 11:30-22:30",
    "wheelchair": "no",
    "outdoor_seating": "yes",
    "rating": null,
    "review_count": null
  },
  {
    "osm_id": 353155948,
    "osm_type": "node",
    "name": "Pizz' aldente",
    "address": "Brussels, Belgium",
    "lat": 50.836442,
    "lng": 4.3924937,
    "cuisine": "Italian",
    "amenity": "fast_food",
    "website": "",
    "phone": "",
    "opening_hours": "",
    "wheelchair": "",
    "outdoor_seating": "",
    "rating": null,
    "review_count": null
  },
  {
    "osm_id": 354483357,
    "osm_type": "node",
    "name": "'t Frietamientje",
    "address": "Brussels, Belgium",
    "lat": 50.9185118,
    "lng": 4.5030419,
    "cuisine": "Regional",
    "amenity": "fast_food",
    "website": "",
    "phone": "",
    "opening_hours": "",
    "wheelchair": "",
    "outdoor_seating": "",
    "rating": null,
    "review_count": null
  },
  {
    "osm_id": 354619109,
    "osm_type": "node",
    "name": "Il Vesuvio",
    "address": "Brussels, Belgium",
    "lat": 50.8286041,
    "lng": 4.3906403,
    "cuisine": "Italian",
    "amenity": "restaurant",
    "website": "",
    "phone": "",
    "opening_hours": "",
    "wheelchair": "",
    "outdoor_seating": "",
    "rating": null,
    "review_count": null
  },
  {
    "osm_id": 355138103,
    "osm_type": "node",
    "name": "Regina",
    "address": "Brussels, Belgium",
    "lat": 50.8482386,
    "lng": 4.4282401,
    "cuisine": "Italian",
    "amenity": "restaurant",
    "website": "",
    "phone": "",
    "opening_hours": "",
    "wheelchair": "",
    "outdoor_seating": "",
    "rating": null,
    "review_count": null
  },
  {
    "osm_id": 356304553,
    "osm_type": "node",
    "name": "Bistropolitan Brussels",
    "address": "Brussels, Belgium",
    "lat": 50.8377032,
    "lng": 4.404486,
    "cuisine": "French",
    "amenity": "restaurant",
    "website": "",
    "phone": "",
    "opening_hours": "",
    "wheelchair": "",
    "outdoor_seating": "",
    "rating": null,
    "review_count": null
  },
  {
    "osm_id": 373913224,
    "osm_type": "node",
    "name": "Brasserie Le Chalet Vert",
    "address": "Rue de la Limite 145, 1970",
    "lat": 50.8307725,
    "lng": 4.5155691,
    "cuisine": "Restaurant",
    "amenity": "restaurant",
    "website": "",
    "phone": "",
    "opening_hours": "",
    "wheelchair": "limited",
    "outdoor_seating": "",
    "rating": null,
    "review_count": null
  },
  {
    "osm_id": 376758352,
    "osm_type": "node",
    "name": "Le Prince Rose",
    "address": "Brussels, Belgium",
    "lat": 50.8440149,
    "lng": 4.5103046,
    "cuisine": "Restaurant",
    "amenity": "restaurant",
    "website": "",
    "phone": "",
    "opening_hours": "",
    "wheelchair": "",
    "outdoor_seating": "",
    "rating": null,
    "review_count": null
  },
  {
    "osm_id": 376758450,
    "osm_type": "node",
    "name": "Balthazar",
    "address": "Brussels, Belgium",
    "lat": 50.8435388,
    "lng": 4.5095552,
    "cuisine": "Restaurant",
    "amenity": "restaurant",
    "website": "",
    "phone": "",
    "opening_hours": "",
    "wheelchair": "no",
    "outdoor_seating": "",
    "rating": null,
    "review_count": null
  },
  {
    "osm_id": 376877482,
    "osm_type": "node",
    "name": "Seven Wonders",
    "address": "Brussels, Belgium",
    "lat": 50.8633861,
    "lng": 4.5160875,
    "cuisine": "Brasserie",
    "amenity": "restaurant",
    "website": "",
    "phone": "",
    "opening_hours": "Tu-Su 17:00-23:00",
    "wheelchair": "yes",
    "outdoor_seating": "",
    "rating": null,
    "review_count": null
  },
  {
    "osm_id": 383740940,
    "osm_type": "node",
    "name": "Al Pronto",
    "address": "Brussels, Belgium",
    "lat": 50.8397469,
    "lng": 4.4688001,
    "cuisine": "Italian",
    "amenity": "restaurant",
    "website": "",
    "phone": "",
    "opening_hours": "",
    "wheelchair": "",
    "outdoor_seating": "",
    "rating": null,
    "review_count": null
  },
  {
    "osm_id": 389493191,
    "osm_type": "node",
    "name": "MiTo",
    "address": "Brussels, Belgium",
    "lat": 50.8314039,
    "lng": 4.4517421,
    "cuisine": "Italian",
    "amenity": "restaurant",
    "website": "",
    "phone": "",
    "opening_hours": "Mo-Tu 18:00-22:30; We-Su 12:00-14:30,18:00-22:30",
    "wheelchair": "",
    "outdoor_seating": "yes",
    "rating": null,
    "review_count": null
  },
  {
    "osm_id": 393162730,
    "osm_type": "node",
    "name": "Pizzeria Da Toni",
    "address": "Brussels, Belgium",
    "lat": 50.8460048,
    "lng": 4.4670511,
    "cuisine": "Italian",
    "amenity": "restaurant",
    "website": "",
    "phone": "",
    "opening_hours": "",
    "wheelchair": "",
    "outdoor_seating": "yes",
    "rating": null,
    "review_count": null
  },
  {
    "osm_id": 402491446,
    "osm_type": "node",
    "name": "Il Posticino",
    "address": "Brussels, Belgium",
    "lat": 50.8476125,
    "lng": 4.4085478,
    "cuisine": "Italian",
    "amenity": "restaurant",
    "website": "",
    "phone": "",
    "opening_hours": "",
    "wheelchair": "",
    "outdoor_seating": "",
    "rating": null,
    "review_count": null
  },
  {
    "osm_id": 408990215,
    "osm_type": "node",
    "name": "Acropolis",
    "address": "Brussels, Belgium",
    "lat": 50.8209161,
    "lng": 4.5118652,
    "cuisine": "Greek",
    "amenity": "restaurant",
    "website": "",
    "phone": "",
    "opening_hours": "",
    "wheelchair": "",
    "outdoor_seating": "",
    "rating": null,
    "review_count": null
  },
  {
    "osm_id": 411458802,
    "osm_type": "node",
    "name": "La Villa Lorraine",
    "address": "Brussels, Belgium",
    "lat": 50.7994622,
    "lng": 4.3785814,
    "cuisine": "French",
    "amenity": "restaurant",
    "website": "",
    "phone": "",
    "opening_hours": "",
    "wheelchair": "",
    "outdoor_seating": "yes",
    "rating": null,
    "review_count": null
  },
  {
    "osm_id": 413462757,
    "osm_type": "node",
    "name": "The Corner",
    "address": "Brussels, Belgium",
    "lat": 50.9054623,
    "lng": 4.4173452,
    "cuisine": "Regional",
    "amenity": "restaurant",
    "website": "",
    "phone": "",
    "opening_hours": "",
    "wheelchair": "",
    "outdoor_seating": "",
    "rating": null,
    "review_count": null
  },
  {
    "osm_id": 413514457,
    "osm_type": "node",
    "name": "De Spotter",
    "address": "Luitenant Philippartstraat 49, 1820, Melsbroek",
    "lat": 50.9092019,
    "lng": 4.472722,
    "cuisine": "Regional",
    "amenity": "fast_food",
    "website": "",
    "phone": "",
    "opening_hours": "",
    "wheelchair": "no",
    "outdoor_seating": "",
    "rating": null,
    "review_count": null
  },
  {
    "osm_id": 416839647,
    "osm_type": "node",
    "name": "Brasserie Streekebeek",
    "address": "Brussels, Belgium",
    "lat": 50.8633249,
    "lng": 4.5154382,
    "cuisine": "Regional",
    "amenity": "restaurant",
    "website": "",
    "phone": "",
    "opening_hours": "",
    "wheelchair": "no",
    "outdoor_seating": "",
    "rating": null,
    "review_count": null
  },
  {
    "osm_id": 417672904,
    "osm_type": "node",
    "name": "Brasserie Gribaumont",
    "address": "Brussels, Belgium",
    "lat": 50.8372957,
    "lng": 4.4158964,
    "cuisine": "Restaurant",
    "amenity": "restaurant",
    "website": "",
    "phone": "",
    "opening_hours": "",
    "wheelchair": "",
    "outdoor_seating": "",
    "rating": null,
    "review_count": null
  },
  {
    "osm_id": 426844843,
    "osm_type": "node",
    "name": "McDonald's",
    "address": "Brussels, Belgium",
    "lat": 50.8151504,
    "lng": 4.3670634,
    "cuisine": "American",
    "amenity": "fast_food",
    "website": "https://www.mcdonalds.be/nl/restaurants/bascule-in-store",
    "phone": "",
    "opening_hours": "",
    "wheelchair": "",
    "outdoor_seating": "",
    "rating": null,
    "review_count": null
  },
  {
    "osm_id": 427623574,
    "osm_type": "node",
    "name": "San Tucci",
    "address": "Prinses Josephine-Charlotteplein 8, 1950, Kraainem",
    "lat": 50.8577544,
    "lng": 4.4680154,
    "cuisine": "Italian",
    "amenity": "restaurant",
    "website": "",
    "phone": "",
    "opening_hours": "",
    "wheelchair": "",
    "outdoor_seating": "",
    "rating": null,
    "review_count": null
  },
  {
    "osm_id": 433340087,
    "osm_type": "node",
    "name": "La Marina",
    "address": "Brussels, Belgium",
    "lat": 50.9074912,
    "lng": 4.4109491,
    "cuisine": "Restaurant",
    "amenity": "restaurant",
    "website": "",
    "phone": "",
    "opening_hours": "",
    "wheelchair": "limited",
    "outdoor_seating": "",
    "rating": null,
    "review_count": null
  },
  {
    "osm_id": 457877372,
    "osm_type": "node",
    "name": "Balmoral",
    "address": "Brussels, Belgium",
    "lat": 50.8167396,
    "lng": 4.3533287,
    "cuisine": "American",
    "amenity": "restaurant",
    "website": "",
    "phone": "",
    "opening_hours": "We,Th,Su 10:00-17:00; Fr,Sa 10:00-21:45",
    "wheelchair": "limited",
    "outdoor_seating": "",
    "rating": null,
    "review_count": null
  },
  {
    "osm_id": 457878619,
    "osm_type": "node",
    "name": "Voltaire",
    "address": "Brussels, Belgium",
    "lat": 50.8178431,
    "lng": 4.3549102,
    "cuisine": "Restaurant",
    "amenity": "restaurant",
    "website": "",
    "phone": "",
    "opening_hours": "",
    "wheelchair": "limited",
    "outdoor_seating": "",
    "rating": null,
    "review_count": null
  },
  {
    "osm_id": 474985851,
    "osm_type": "node",
    "name": "Coq D'Or",
    "address": "Brussels, Belgium",
    "lat": 50.8323923,
    "lng": 4.3495339,
    "cuisine": "Restaurant",
    "amenity": "restaurant",
    "website": "",
    "phone": "",
    "opening_hours": "",
    "wheelchair": "",
    "outdoor_seating": "yes",
    "rating": null,
    "review_count": null
  },
  {
    "osm_id": 474985858,
    "osm_type": "node",
    "name": "Oma",
    "address": "Brussels, Belgium",
    "lat": 50.832211,
    "lng": 4.3493435,
    "cuisine": "Regional",
    "amenity": "restaurant",
    "website": "",
    "phone": "",
    "opening_hours": "Tu-Fr 09:00-16:00; Sa,Su 10:30-16:00",
    "wheelchair": "",
    "outdoor_seating": "yes",
    "rating": null,
    "review_count": null
  },
  {
    "osm_id": 474985859,
    "osm_type": "node",
    "name": "Le Taj",
    "address": "Brussels, Belgium",
    "lat": 50.83228,
    "lng": 4.3494072,
    "cuisine": "Indian",
    "amenity": "restaurant",
    "website": "",
    "phone": "",
    "opening_hours": "12:00-15:00,18:00-23:00",
    "wheelchair": "",
    "outdoor_seating": "",
    "rating": null,
    "review_count": null
  },
  {
    "osm_id": 474986928,
    "osm_type": "node",
    "name": "Nuovo Rosso",
    "address": "Brussels, Belgium",
    "lat": 50.8335356,
    "lng": 4.3525027,
    "cuisine": "Italian",
    "amenity": "restaurant",
    "website": "",
    "phone": "",
    "opening_hours": "",
    "wheelchair": "",
    "outdoor_seating": "",
    "rating": null,
    "review_count": null
  },
  {
    "osm_id": 488330252,
    "osm_type": "node",
    "name": "Chez Firas",
    "address": "Brussels, Belgium",
    "lat": 50.8499301,
    "lng": 4.379668,
    "cuisine": "Syrian",
    "amenity": "restaurant",
    "website": "",
    "phone": "",
    "opening_hours": "",
    "wheelchair": "",
    "outdoor_seating": "",
    "rating": null,
    "review_count": null
  },
  {
    "osm_id": 494956595,
    "osm_type": "node",
    "name": "Hof Ten As",
    "address": "Brussels, Belgium",
    "lat": 50.9191402,
    "lng": 4.4908974,
    "cuisine": "Restaurant",
    "amenity": "restaurant",
    "website": "",
    "phone": "",
    "opening_hours": "",
    "wheelchair": "",
    "outdoor_seating": "",
    "rating": null,
    "review_count": null
  },
  {
    "osm_id": 502293554,
    "osm_type": "node",
    "name": "Pizzeria Il Barinetto",
    "address": "Haachtsesteenweg 23, 1831, Diegem",
    "lat": 50.897394,
    "lng": 4.4340748,
    "cuisine": "Italian",
    "amenity": "restaurant",
    "website": "https://ilbarinetto.be/",
    "phone": "",
    "opening_hours": "",
    "wheelchair": "",
    "outdoor_seating": "",
    "rating": null,
    "review_count": null
  },
  {
    "osm_id": 502954592,
    "osm_type": "node",
    "name": "Pizza Napoli Antica",
    "address": "Brussels, Belgium",
    "lat": 50.8970526,
    "lng": 4.4374462,
    "cuisine": "Italian",
    "amenity": "restaurant",
    "website": "",
    "phone": "",
    "opening_hours": "",
    "wheelchair": "",
    "outdoor_seating": "",
    "rating": null,
    "review_count": null
  },
  {
    "osm_id": 513425543,
    "osm_type": "node",
    "name": "Snack Tim",
    "address": "Brussels, Belgium",
    "lat": 50.8717081,
    "lng": 4.3255916,
    "cuisine": "Friture",
    "amenity": "fast_food",
    "website": "",
    "phone": "",
    "opening_hours": "Mo-Th 11:30-23:00; Fr,Sa 11:30-24:00",
    "wheelchair": "",
    "outdoor_seating": "",
    "rating": null,
    "review_count": null
  },
  {
    "osm_id": 518687011,
    "osm_type": "node",
    "name": "Hector Chicken",
    "address": "Brussels, Belgium",
    "lat": 50.8307399,
    "lng": 4.3444688,
    "cuisine": "Chicken",
    "amenity": "fast_food",
    "website": "",
    "phone": "",
    "opening_hours": "Mo-Fr 11:00-22:00; Sa-Su 11:00-22:30",
    "wheelchair": "",
    "outdoor_seating": "yes",
    "rating": null,
    "review_count": null
  },
  {
    "osm_id": 556338156,
    "osm_type": "node",
    "name": "Kabuki",
    "address": "Brussels, Belgium",
    "lat": 50.8488654,
    "lng": 4.3509211,
    "cuisine": "Japanese",
    "amenity": "restaurant",
    "website": "",
    "phone": "",
    "opening_hours": "Mo-Su 12:00-14:00,18:00-23:00",
    "wheelchair": "yes",
    "outdoor_seating": "no",
    "rating": null,
    "review_count": null
  },
  {
    "osm_id": 563705387,
    "osm_type": "node",
    "name": "'t hof van Hamme",
    "address": "Hector Henneaulaan 64, 1930, Zaventem",
    "lat": 50.8806709,
    "lng": 4.4751452,
    "cuisine": "Regional",
    "amenity": "restaurant",
    "website": "",
    "phone": "",
    "opening_hours": "",
    "wheelchair": "",
    "outdoor_seating": "yes",
    "rating": null,
    "review_count": null
  },
  {
    "osm_id": 563705585,
    "osm_type": "node",
    "name": "Brasserie Mariadal",
    "address": "Brussels, Belgium",
    "lat": 50.8805878,
    "lng": 4.4777017,
    "cuisine": "Restaurant",
    "amenity": "restaurant",
    "website": "",
    "phone": "",
    "opening_hours": "",
    "wheelchair": "limited",
    "outdoor_seating": "",
    "rating": null,
    "review_count": null
  },
  {
    "osm_id": 563976569,
    "osm_type": "node",
    "name": "Ristorante la Renna",
    "address": "Brussels, Belgium",
    "lat": 50.870472,
    "lng": 4.3951427,
    "cuisine": "Italian",
    "amenity": "restaurant",
    "website": "",
    "phone": "",
    "opening_hours": "",
    "wheelchair": "",
    "outdoor_seating": "",
    "rating": null,
    "review_count": null
  },
  {
    "osm_id": 574818410,
    "osm_type": "node",
    "name": "Snack Pane & Focaccia",
    "address": "Brussels, Belgium",
    "lat": 50.8797738,
    "lng": 4.412905,
    "cuisine": "Italian",
    "amenity": "fast_food",
    "website": "",
    "phone": "",
    "opening_hours": "",
    "wheelchair": "",
    "outdoor_seating": "",
    "rating": null,
    "review_count": null
  },
  {
    "osm_id": 575898378,
    "osm_type": "node",
    "name": "Mine Madeh",
    "address": "Brussels, Belgium",
    "lat": 50.849865,
    "lng": 4.3553851,
    "cuisine": "Syrian",
    "amenity": "restaurant",
    "website": "",
    "phone": "",
    "opening_hours": "",
    "wheelchair": "no",
    "outdoor_seating": "pedestrian_zone",
    "rating": null,
    "review_count": null
  },
  {
    "osm_id": 599257121,
    "osm_type": "node",
    "name": "Billy Frit",
    "address": "Brussels, Belgium",
    "lat": 50.8943446,
    "lng": 4.4366714,
    "cuisine": "Friture",
    "amenity": "fast_food",
    "website": "",
    "phone": "",
    "opening_hours": "",
    "wheelchair": "",
    "outdoor_seating": "",
    "rating": null,
    "review_count": null
  },
  {
    "osm_id": 602765935,
    "osm_type": "node",
    "name": "Chalet de la Forêt",
    "address": "Brussels, Belgium",
    "lat": 50.7846884,
    "lng": 4.3866178,
    "cuisine": "Restaurant",
    "amenity": "restaurant",
    "website": "",
    "phone": "",
    "opening_hours": "Mo-Fr 12:00-14:00,19:00-21:00",
    "wheelchair": "",
    "outdoor_seating": "",
    "rating": null,
    "review_count": null
  },
  {
    "osm_id": 602765942,
    "osm_type": "node",
    "name": "Au Rallye des Autos",
    "address": "Brussels, Belgium",
    "lat": 50.783931,
    "lng": 4.3789098,
    "cuisine": "Restaurant",
    "amenity": "restaurant",
    "website": "",
    "phone": "",
    "opening_hours": "",
    "wheelchair": "",
    "outdoor_seating": "",
    "rating": null,
    "review_count": null
  },
  {
    "osm_id": 613352975,
    "osm_type": "node",
    "name": "Wolf Street Cafe",
    "address": "Brussels, Belgium",
    "lat": 50.8177713,
    "lng": 4.3927708,
    "cuisine": "French",
    "amenity": "restaurant",
    "website": "",
    "phone": "",
    "opening_hours": "",
    "wheelchair": "",
    "outdoor_seating": "no",
    "rating": null,
    "review_count": null
  },
  {
    "osm_id": 615314209,
    "osm_type": "node",
    "name": "Ristorante da Beni",
    "address": "Sint-Amandsplein 27",
    "lat": 50.9104844,
    "lng": 4.3555228,
    "cuisine": "Italian",
    "amenity": "restaurant",
    "website": "https://www.ristorantedabeni.be/",
    "phone": "",
    "opening_hours": "Tu-Su 12:00-15:00,18:15-22:30",
    "wheelchair": "",
    "outdoor_seating": "yes",
    "rating": null,
    "review_count": null
  },
  {
    "osm_id": 615314222,
    "osm_type": "node",
    "name": "Frituur van Strombeek",
    "address": "Sint-Amandsplein 2",
    "lat": 50.9096771,
    "lng": 4.3559612,
    "cuisine": "Friture",
    "amenity": "fast_food",
    "website": "",
    "phone": "",
    "opening_hours": "",
    "wheelchair": "",
    "outdoor_seating": "",
    "rating": null,
    "review_count": null
  },
  {
    "osm_id": 615362985,
    "osm_type": "node",
    "name": "Mirishko",
    "address": "Brussels, Belgium",
    "lat": 50.9092947,
    "lng": 4.3517816,
    "cuisine": "Restaurant",
    "amenity": "fast_food",
    "website": "",
    "phone": "",
    "opening_hours": "",
    "wheelchair": "",
    "outdoor_seating": "",
    "rating": null,
    "review_count": null
  },
  {
    "osm_id": 615363008,
    "osm_type": "node",
    "name": "Ter Borre",
    "address": "Brussels, Belgium",
    "lat": 50.9100823,
    "lng": 4.3547309,
    "cuisine": "Restaurant",
    "amenity": "restaurant",
    "website": "",
    "phone": "",
    "opening_hours": "",
    "wheelchair": "",
    "outdoor_seating": "",
    "rating": null,
    "review_count": null
  },
  {
    "osm_id": 615363023,
    "osm_type": "node",
    "name": "Snack Cappadoce",
    "address": "Brussels, Belgium",
    "lat": 50.9094166,
    "lng": 4.3574127,
    "cuisine": "Restaurant",
    "amenity": "fast_food",
    "website": "",
    "phone": "",
    "opening_hours": "Mo-Th 11:30-23:00; Fr,Sa 11:30-00:00; Su 11:30-23:30",
    "wheelchair": "",
    "outdoor_seating": "",
    "rating": null,
    "review_count": null
  },
  {
    "osm_id": 615505015,
    "osm_type": "node",
    "name": "Le Belle-Vue",
    "address": "Brussels, Belgium",
    "lat": 50.8246237,
    "lng": 4.3358874,
    "cuisine": "French",
    "amenity": "restaurant",
    "website": "",
    "phone": "",
    "opening_hours": "",
    "wheelchair": "",
    "outdoor_seating": "",
    "rating": null,
    "review_count": null
  },
  {
    "osm_id": 619191761,
    "osm_type": "node",
    "name": "Snack Spuntino",
    "address": "Brussels, Belgium",
    "lat": 50.9067282,
    "lng": 4.4135851,
    "cuisine": "Restaurant",
    "amenity": "fast_food",
    "website": "",
    "phone": "",
    "opening_hours": "",
    "wheelchair": "",
    "outdoor_seating": "",
    "rating": null,
    "review_count": null
  },
  {
    "osm_id": 623504311,
    "osm_type": "node",
    "name": "Yagura",
    "address": "Brussels, Belgium",
    "lat": 50.8082506,
    "lng": 4.3706525,
    "cuisine": "Japanese",
    "amenity": "restaurant",
    "website": "",
    "phone": "",
    "opening_hours": "Tu-Sa 12:00-14:00,19:00-22:00",
    "wheelchair": "",
    "outdoor_seating": "",
    "rating": null,
    "review_count": null
  },
  {
    "osm_id": 633337670,
    "osm_type": "node",
    "name": "Fritkot Bompa",
    "address": "Brussels, Belgium",
    "lat": 50.8295341,
    "lng": 4.3789336,
    "cuisine": "Friture",
    "amenity": "fast_food",
    "website": "",
    "phone": "",
    "opening_hours": "11:30-14:00,17:00-23:00",
    "wheelchair": "",
    "outdoor_seating": "",
    "rating": null,
    "review_count": null
  },
  {
    "osm_id": 633688856,
    "osm_type": "node",
    "name": "Schievelavabo",
    "address": "Brussels, Belgium",
    "lat": 50.7917631,
    "lng": 4.3315015,
    "cuisine": "French",
    "amenity": "restaurant",
    "website": "",
    "phone": "",
    "opening_hours": "Mo-Th 12:00-23:00; Fr 12:00-00:00; Sa 18:30-00:00; Su 18:30-23:00",
    "wheelchair": "",
    "outdoor_seating": "",
    "rating": null,
    "review_count": null
  },
  {
    "osm_id": 649210558,
    "osm_type": "node",
    "name": "New Carré Sandwich Bar",
    "address": "Parklaan 7, 1930, Zaventem",
    "lat": 50.881056,
    "lng": 4.4749492,
    "cuisine": "Sandwich",
    "amenity": "fast_food",
    "website": "",
    "phone": "",
    "opening_hours": "",
    "wheelchair": "",
    "outdoor_seating": "",
    "rating": null,
    "review_count": null
  },
  {
    "osm_id": 649213912,
    "osm_type": "node",
    "name": "Manzo by Antonio Morreale",
    "address": "Steenokkerzeelstraat 151",
    "lat": 50.8887152,
    "lng": 4.4735464,
    "cuisine": "Restaurant",
    "amenity": "restaurant",
    "website": "",
    "phone": "",
    "opening_hours": "Tu-Fr 12:00-14:30,18:00-22:00; Sa 18:00-22:00; Su 12:00-15:00,18:00-22:00",
    "wheelchair": "no",
    "outdoor_seating": "",
    "rating": null,
    "review_count": null
  },
  {
    "osm_id": 649228930,
    "osm_type": "node",
    "name": "Lung Seng",
    "address": "Brussels, Belgium",
    "lat": 50.889457,
    "lng": 4.4706097,
    "cuisine": "Chinese",
    "amenity": "restaurant",
    "website": "https://www.lungseng.be/",
    "phone": "+32 2 721 41 92",
    "opening_hours": "Mo,Tu,Th,Fr,Su 12:00-13:00,17:30-21:00; Sa 17:30-21:00",
    "wheelchair": "",
    "outdoor_seating": "",
    "rating": null,
    "review_count": null
  },
  {
    "osm_id": 649228959,
    "osm_type": "node",
    "name": "Frituur Fritpleintje",
    "address": "Heidestraat 3",
    "lat": 50.8900507,
    "lng": 4.4715374,
    "cuisine": "Friture",
    "amenity": "fast_food",
    "website": "",
    "phone": "",
    "opening_hours": "",
    "wheelchair": "",
    "outdoor_seating": "",
    "rating": null,
    "review_count": null
  },
  {
    "osm_id": 649235126,
    "osm_type": "node",
    "name": "Ristorante Serenata",
    "address": "Brussels, Belgium",
    "lat": 50.8850336,
    "lng": 4.4704338,
    "cuisine": "Restaurant",
    "amenity": "restaurant",
    "website": "",
    "phone": "",
    "opening_hours": "",
    "wheelchair": "",
    "outdoor_seating": "",
    "rating": null,
    "review_count": null
  },
  {
    "osm_id": 670257960,
    "osm_type": "node",
    "name": "McDonald's",
    "address": "Brussels, Belgium",
    "lat": 50.8373612,
    "lng": 4.3619548,
    "cuisine": "American",
    "amenity": "fast_food",
    "website": "https://www.mcdonalds.be/nl/restaurants/ixelles-in-store",
    "phone": "",
    "opening_hours": "Mo-Th 07:00-01:00; Fr-Sa 07:00-02:00; Su 09:00-01:00",
    "wheelchair": "",
    "outdoor_seating": "no",
    "rating": null,
    "review_count": null
  },
  {
    "osm_id": 670257961,
    "osm_type": "node",
    "name": "BelChicken",
    "address": "Brussels, Belgium",
    "lat": 50.8372959,
    "lng": 4.3619996,
    "cuisine": "Restaurant",
    "amenity": "fast_food",
    "website": "",
    "phone": "",
    "opening_hours": "",
    "wheelchair": "",
    "outdoor_seating": "",
    "rating": null,
    "review_count": null
  },
  {
    "osm_id": 670404942,
    "osm_type": "node",
    "name": "Les Amis Dînent",
    "address": "Brussels, Belgium",
    "lat": 50.8422419,
    "lng": 4.4969728,
    "cuisine": "Restaurant",
    "amenity": "restaurant",
    "website": "",
    "phone": "",
    "opening_hours": "",
    "wheelchair": "",
    "outdoor_seating": "",
    "rating": null,
    "review_count": null
  },
  {
    "osm_id": 674681221,
    "osm_type": "node",
    "name": "Chicago Trattoria",
    "address": "Brussels, Belgium",
    "lat": 50.8529978,
    "lng": 4.3454388,
    "cuisine": "Italian",
    "amenity": "restaurant",
    "website": "",
    "phone": "",
    "opening_hours": "Tu-Fr 12:00-14:00, 18:00-22:00; Sa-Su 18:00-22:00",
    "wheelchair": "",
    "outdoor_seating": "",
    "rating": null,
    "review_count": null
  },
  {
    "osm_id": 692848063,
    "osm_type": "node",
    "name": "Snack XL",
    "address": "Brussels, Belgium",
    "lat": 50.8254438,
    "lng": 4.3585528,
    "cuisine": "Restaurant",
    "amenity": "fast_food",
    "website": "",
    "phone": "",
    "opening_hours": "",
    "wheelchair": "",
    "outdoor_seating": "yes",
    "rating": null,
    "review_count": null
  },
  {
    "osm_id": 692913049,
    "osm_type": "node",
    "name": "Barracuda",
    "address": "Brussels, Belgium",
    "lat": 50.8272012,
    "lng": 4.373046,
    "cuisine": "Italian",
    "amenity": "restaurant",
    "website": "",
    "phone": "",
    "opening_hours": "Mo-Th 12:00-14:00,18:30-22:00; Fr 12:00-14:00,18:30-22:15; Sa 12:00-14:45,18:30-22:15; Su 12:00-14:45,18:30-22:00",
    "wheelchair": "",
    "outdoor_seating": "",
    "rating": null,
    "review_count": null
  },
  {
    "osm_id": 694045674,
    "osm_type": "node",
    "name": "Drug Opera",
    "address": "Brussels, Belgium",
    "lat": 50.848976,
    "lng": 4.352213,
    "cuisine": "Regional",
    "amenity": "restaurant",
    "website": "",
    "phone": "",
    "opening_hours": "Mo-Fr 12:00-23:00, Sa,Su 12:00-24:00",
    "wheelchair": "limited",
    "outdoor_seating": "yes",
    "rating": null,
    "review_count": null
  },
  {
    "osm_id": 694336436,
    "osm_type": "node",
    "name": "Le Deuxième Élément",
    "address": "Brussels, Belgium",
    "lat": 50.8359501,
    "lng": 4.3648155,
    "cuisine": "Thai",
    "amenity": "restaurant",
    "website": "",
    "phone": "",
    "opening_hours": "Mo-Fr 12:00-14:30,18:30-22:30; Sa,Su 18:30-22:30",
    "wheelchair": "limited",
    "outdoor_seating": "",
    "rating": null,
    "review_count": null
  },
  {
    "osm_id": 694372969,
    "osm_type": "node",
    "name": "Yamato",
    "address": "Brussels, Belgium",
    "lat": 50.8362608,
    "lng": 4.3636908,
    "cuisine": "Japanese",
    "amenity": "restaurant",
    "website": "",
    "phone": "",
    "opening_hours": "Mo-Fr 12:00-14:30,18:30-22:00; Sa,Su 12:00-15:30,18:30-22:00",
    "wheelchair": "limited",
    "outdoor_seating": "",
    "rating": null,
    "review_count": null
  },
  {
    "osm_id": 697963451,
    "osm_type": "node",
    "name": "Met Jeaninne",
    "address": "Brussels, Belgium",
    "lat": 50.8363864,
    "lng": 4.3872764,
    "cuisine": "Restaurant",
    "amenity": "restaurant",
    "website": "",
    "phone": "",
    "opening_hours": "",
    "wheelchair": "",
    "outdoor_seating": "",
    "rating": null,
    "review_count": null
  },
  {
    "osm_id": 698288168,
    "osm_type": "node",
    "name": "Anata",
    "address": "Brussels, Belgium",
    "lat": 50.8486419,
    "lng": 4.3502412,
    "cuisine": "Japanese",
    "amenity": "restaurant",
    "website": "",
    "phone": "",
    "opening_hours": "",
    "wheelchair": "yes",
    "outdoor_seating": "",
    "rating": null,
    "review_count": null
  },
  {
    "osm_id": 698638650,
    "osm_type": "node",
    "name": "Food Inspiration",
    "address": "Brussels, Belgium",
    "lat": 50.8368952,
    "lng": 4.3881907,
    "cuisine": "Restaurant",
    "amenity": "restaurant",
    "website": "",
    "phone": "",
    "opening_hours": "Mo-Fr 09:45-17:15",
    "wheelchair": "",
    "outdoor_seating": "",
    "rating": null,
    "review_count": null
  },
  {
    "osm_id": 702839434,
    "osm_type": "node",
    "name": "Pizza Hut",
    "address": "Brussels, Belgium",
    "lat": 50.844224,
    "lng": 4.2695492,
    "cuisine": "Italian",
    "amenity": "restaurant",
    "website": "",
    "phone": "",
    "opening_hours": "",
    "wheelchair": "",
    "outdoor_seating": "",
    "rating": null,
    "review_count": null
  },
  {
    "osm_id": 707134015,
    "osm_type": "node",
    "name": "Pizza Hut",
    "address": "Brussels, Belgium",
    "lat": 50.8136369,
    "lng": 4.3385398,
    "cuisine": "Italian",
    "amenity": "restaurant",
    "website": "",
    "phone": "",
    "opening_hours": "",
    "wheelchair": "",
    "outdoor_seating": "",
    "rating": null,
    "review_count": null
  },
  {
    "osm_id": 712712786,
    "osm_type": "node",
    "name": "Fanoos",
    "address": "Brussels, Belgium",
    "lat": 50.8385274,
    "lng": 4.3857624,
    "cuisine": "Sandwich",
    "amenity": "fast_food",
    "website": "",
    "phone": "",
    "opening_hours": "",
    "wheelchair": "",
    "outdoor_seating": "",
    "rating": null,
    "review_count": null
  },
  {
    "osm_id": 712913905,
    "osm_type": "node",
    "name": "Le Quartier Latin",
    "address": "Brussels, Belgium",
    "lat": 50.8223662,
    "lng": 4.3886139,
    "cuisine": "Restaurant",
    "amenity": "restaurant",
    "website": "",
    "phone": "",
    "opening_hours": "",
    "wheelchair": "",
    "outdoor_seating": "",
    "rating": null,
    "review_count": null
  },
  {
    "osm_id": 714030639,
    "osm_type": "node",
    "name": "Pulp",
    "address": "Brussels, Belgium",
    "lat": 50.8416426,
    "lng": 4.3841192,
    "cuisine": "Sandwich",
    "amenity": "fast_food",
    "website": "",
    "phone": "",
    "opening_hours": "",
    "wheelchair": "",
    "outdoor_seating": "yes",
    "rating": null,
    "review_count": null
  },
  {
    "osm_id": 714030648,
    "osm_type": "node",
    "name": "Chilli's Food",
    "address": "Brussels, Belgium",
    "lat": 50.8417187,
    "lng": 4.3840791,
    "cuisine": "International",
    "amenity": "fast_food",
    "website": "",
    "phone": "",
    "opening_hours": "",
    "wheelchair": "",
    "outdoor_seating": "",
    "rating": null,
    "review_count": null
  },
  {
    "osm_id": 724211843,
    "osm_type": "node",
    "name": "Cinnamon Curry",
    "address": "Brussels, Belgium",
    "lat": 50.83697,
    "lng": 4.3869688,
    "cuisine": "Indian",
    "amenity": "restaurant",
    "website": "",
    "phone": "",
    "opening_hours": "",
    "wheelchair": "",
    "outdoor_seating": "",
    "rating": null,
    "review_count": null
  },
  {
    "osm_id": 724211846,
    "osm_type": "node",
    "name": "Miyako",
    "address": "Brussels, Belgium",
    "lat": 50.8376219,
    "lng": 4.3866253,
    "cuisine": "Japanese",
    "amenity": "restaurant",
    "website": "",
    "phone": "",
    "opening_hours": "Mo-Fr 12:00-14:30,18:00-23:00, Sa,Su 18:00-23:00",
    "wheelchair": "",
    "outdoor_seating": "",
    "rating": null,
    "review_count": null
  },
  {
    "osm_id": 724221378,
    "osm_type": "node",
    "name": "Kyoto food",
    "address": "Brussels, Belgium",
    "lat": 50.837656,
    "lng": 4.3963788,
    "cuisine": "Japanese",
    "amenity": "fast_food",
    "website": "",
    "phone": "",
    "opening_hours": "Mo-Su 10:00-22:00",
    "wheelchair": "no",
    "outdoor_seating": "",
    "rating": null,
    "review_count": null
  },
  {
    "osm_id": 727446431,
    "osm_type": "node",
    "name": "Takumi",
    "address": "Brussels, Belgium",
    "lat": 50.8374573,
    "lng": 4.3808214,
    "cuisine": "Ramen",
    "amenity": "restaurant",
    "website": "",
    "phone": "",
    "opening_hours": "Mo-Fr 12:00-14:00,18:30-22:00; Sa 12:00-14:00,18:30-22:30",
    "wheelchair": "",
    "outdoor_seating": "",
    "rating": null,
    "review_count": null
  },
  {
    "osm_id": 734753454,
    "osm_type": "node",
    "name": "Il Veliero",
    "address": "Brussels, Belgium",
    "lat": 50.8365687,
    "lng": 4.3824978,
    "cuisine": "Italian",
    "amenity": "restaurant",
    "website": "",
    "phone": "",
    "opening_hours": "",
    "wheelchair": "",
    "outdoor_seating": "yes",
    "rating": null,
    "review_count": null
  },
  {
    "osm_id": 745608731,
    "osm_type": "node",
    "name": "Hanoi Station",
    "address": "Brussels, Belgium",
    "lat": 50.838794,
    "lng": 4.3985835,
    "cuisine": "Vietnamese",
    "amenity": "fast_food",
    "website": "",
    "phone": "",
    "opening_hours": "Tu-Su 12:00-22:00",
    "wheelchair": "no",
    "outdoor_seating": "",
    "rating": null,
    "review_count": null
  },
  {
    "osm_id": 746463040,
    "osm_type": "node",
    "name": "Knees to chin",
    "address": "Brussels, Belgium",
    "lat": 50.8387106,
    "lng": 4.3978948,
    "cuisine": "Asian",
    "amenity": "restaurant",
    "website": "",
    "phone": "",
    "opening_hours": "Mo-Su 11:30-22:30",
    "wheelchair": "limited",
    "outdoor_seating": "",
    "rating": null,
    "review_count": null
  },
  {
    "osm_id": 746463042,
    "osm_type": "node",
    "name": "Snack Merode",
    "address": "Brussels, Belgium",
    "lat": 50.8386772,
    "lng": 4.3978455,
    "cuisine": "Restaurant",
    "amenity": "fast_food",
    "website": "",
    "phone": "",
    "opening_hours": "",
    "wheelchair": "limited",
    "outdoor_seating": "",
    "rating": null,
    "review_count": null
  },
  {
    "osm_id": 751802470,
    "osm_type": "node",
    "name": "Quick",
    "address": "Brussels, Belgium",
    "lat": 50.8491341,
    "lng": 4.3507605,
    "cuisine": "American",
    "amenity": "fast_food",
    "website": "",
    "phone": "",
    "opening_hours": "Mo-Su 11:00-24:00",
    "wheelchair": "limited",
    "outdoor_seating": "yes",
    "rating": null,
    "review_count": null
  },
  {
    "osm_id": 764388845,
    "osm_type": "node",
    "name": "Anothai",
    "address": "Brussels, Belgium",
    "lat": 50.8953458,
    "lng": 4.436396,
    "cuisine": "Thai",
    "amenity": "restaurant",
    "website": "",
    "phone": "",
    "opening_hours": "",
    "wheelchair": "",
    "outdoor_seating": "",
    "rating": null,
    "review_count": null
  },
  {
    "osm_id": 765663166,
    "osm_type": "node",
    "name": "Pizza Hut",
    "address": "Brussels, Belgium",
    "lat": 50.8799315,
    "lng": 4.4729738,
    "cuisine": "Italian",
    "amenity": "restaurant",
    "website": "",
    "phone": "",
    "opening_hours": "",
    "wheelchair": "",
    "outdoor_seating": "",
    "rating": null,
    "review_count": null
  },
  {
    "osm_id": 765663167,
    "osm_type": "node",
    "name": "'t Cuyperke",
    "address": "Stationsstraat 19, 1930, Zaventem",
    "lat": 50.8796052,
    "lng": 4.472646,
    "cuisine": "Belgian",
    "amenity": "restaurant",
    "website": "https://cuyperke.be",
    "phone": "+32 2 725 96 02",
    "opening_hours": "Mo-Fr 12:00-15:00,18:00-21:30",
    "wheelchair": "",
    "outdoor_seating": "",
    "rating": null,
    "review_count": null
  },
  {
    "osm_id": 765663168,
    "osm_type": "node",
    "name": "Fairuz",
    "address": "Stationsstraat 21, 1930, Zaventem",
    "lat": 50.8797144,
    "lng": 4.4725724,
    "cuisine": "Lebanese",
    "amenity": "restaurant",
    "website": "https://www.restaurant-fairuz.be/",
    "phone": "+32 2 315 95 38",
    "opening_hours": "Mo-Su 16:00-23:00; Tu off",
    "wheelchair": "",
    "outdoor_seating": "",
    "rating": null,
    "review_count": null
  },
  {
    "osm_id": 766847690,
    "osm_type": "node",
    "name": "La Frattoria",
    "address": "Brussels, Belgium",
    "lat": 50.8381348,
    "lng": 4.3820268,
    "cuisine": "Italian",
    "amenity": "restaurant",
    "website": "",
    "phone": "",
    "opening_hours": "Mo,Fr 12:00-14:00; Tu-Th 12:00-14:00,19:00-23:00",
    "wheelchair": "limited",
    "outdoor_seating": "",
    "rating": null,
    "review_count": null
  },
  {
    "osm_id": 766847696,
    "osm_type": "node",
    "name": "Chez Amina",
    "address": "Brussels, Belgium",
    "lat": 50.838439,
    "lng": 4.382078,
    "cuisine": "Restaurant",
    "amenity": "restaurant",
    "website": "",
    "phone": "",
    "opening_hours": "",
    "wheelchair": "no",
    "outdoor_seating": "",
    "rating": null,
    "review_count": null
  },
  {
    "osm_id": 766847741,
    "osm_type": "node",
    "name": "Pampas",
    "address": "Brussels, Belgium",
    "lat": 50.8372152,
    "lng": 4.3817803,
    "cuisine": "Steak_House",
    "amenity": "restaurant",
    "website": "",
    "phone": "",
    "opening_hours": "Mo-Fr 18:30-22:30; Sa 18:30-23:00; Su 12:00-14:30,18:00-22:30",
    "wheelchair": "yes",
    "outdoor_seating": "yes",
    "rating": null,
    "review_count": null
  },
  {
    "osm_id": 766847753,
    "osm_type": "node",
    "name": "Paradis du Liban",
    "address": "Brussels, Belgium",
    "lat": 50.8390327,
    "lng": 4.3980783,
    "cuisine": "Lebanese",
    "amenity": "restaurant",
    "website": "",
    "phone": "",
    "opening_hours": "Mo-Su,PH 11:45-14:05,17:55-22:30",
    "wheelchair": "no",
    "outdoor_seating": "",
    "rating": null,
    "review_count": null
  },
  {
    "osm_id": 766847798,
    "osm_type": "node",
    "name": "Donki",
    "address": "Brussels, Belgium",
    "lat": 50.8373348,
    "lng": 4.3817716,
    "cuisine": "Mexican",
    "amenity": "fast_food",
    "website": "",
    "phone": "",
    "opening_hours": "Mo-Su 11:30-21:00",
    "wheelchair": "",
    "outdoor_seating": "",
    "rating": null,
    "review_count": null
  },
  {
    "osm_id": 766885580,
    "osm_type": "node",
    "name": "Snack New Bienfaiteurs",
    "address": "Brussels, Belgium",
    "lat": 50.8584574,
    "lng": 4.3843661,
    "cuisine": "Turkish",
    "amenity": "fast_food",
    "website": "",
    "phone": "",
    "opening_hours": "Mo-Th,Su 11:00-01:00; Fr-Sa 11:00-02:00",
    "wheelchair": "yes",
    "outdoor_seating": "",
    "rating": null,
    "review_count": null
  },
  {
    "osm_id": 766890884,
    "osm_type": "node",
    "name": "Snack Musti",
    "address": "Brussels, Belgium",
    "lat": 50.8560664,
    "lng": 4.3840718,
    "cuisine": "Restaurant",
    "amenity": "fast_food",
    "website": "",
    "phone": "",
    "opening_hours": "Mo-Th 11:00-24:00, Fr-Sa 11:00-02:00, Su 11:00-00:30",
    "wheelchair": "",
    "outdoor_seating": "",
    "rating": null,
    "review_count": null
  },
  {
    "osm_id": 766893278,
    "osm_type": "node",
    "name": "La Couronne",
    "address": "Brussels, Belgium",
    "lat": 50.8591422,
    "lng": 4.3784109,
    "cuisine": "Restaurant",
    "amenity": "restaurant",
    "website": "",
    "phone": "",
    "opening_hours": "",
    "wheelchair": "",
    "outdoor_seating": "",
    "rating": null,
    "review_count": null
  },
  {
    "osm_id": 766934018,
    "osm_type": "node",
    "name": "Babbelaar",
    "address": "Brussels, Belgium",
    "lat": 50.7903121,
    "lng": 4.2975797,
    "cuisine": "Restaurant",
    "amenity": "restaurant",
    "website": "",
    "phone": "",
    "opening_hours": "We,Fr 19:00-20:30; Su 10:00-12:00",
    "wheelchair": "",
    "outdoor_seating": "",
    "rating": null,
    "review_count": null
  },
  {
    "osm_id": 766934023,
    "osm_type": "node",
    "name": "Snack Antalya",
    "address": "Brussels, Belgium",
    "lat": 50.7897441,
    "lng": 4.2983342,
    "cuisine": "Kebab",
    "amenity": "fast_food",
    "website": "",
    "phone": "",
    "opening_hours": "Tu-Su 11:00-23:00",
    "wheelchair": "",
    "outdoor_seating": "",
    "rating": null,
    "review_count": null
  },
  {
    "osm_id": 766934027,
    "osm_type": "node",
    "name": "Brasserie Il Sorrento Pizzeria",
    "address": "Brussels, Belgium",
    "lat": 50.789787,
    "lng": 4.2979884,
    "cuisine": "Italian",
    "amenity": "restaurant",
    "website": "",
    "phone": "",
    "opening_hours": "",
    "wheelchair": "",
    "outdoor_seating": "",
    "rating": null,
    "review_count": null
  },
  {
    "osm_id": 767538508,
    "osm_type": "node",
    "name": "Frituur Sabine & Serge",
    "address": "Brussels, Belgium",
    "lat": 50.7844475,
    "lng": 4.2930836,
    "cuisine": "Friture",
    "amenity": "fast_food",
    "website": "",
    "phone": "",
    "opening_hours": "",
    "wheelchair": "",
    "outdoor_seating": "",
    "rating": null,
    "review_count": null
  },
  {
    "osm_id": 767538509,
    "osm_type": "node",
    "name": "Yuan Chinese Traiteur",
    "address": "Brussels, Belgium",
    "lat": 50.7838669,
    "lng": 4.2925526,
    "cuisine": "Chinese",
    "amenity": "fast_food",
    "website": "https://yuanonline.be/",
    "phone": "",
    "opening_hours": "",
    "wheelchair": "",
    "outdoor_seating": "",
    "rating": null,
    "review_count": null
  },
  {
    "osm_id": 767538516,
    "osm_type": "node",
    "name": "Pizzeria Santa Maria",
    "address": "Fabriekstraat 138",
    "lat": 50.7839729,
    "lng": 4.2923552,
    "cuisine": "Italian",
    "amenity": "fast_food",
    "website": "",
    "phone": "",
    "opening_hours": "Mo,Tu-Su 11:00-14:30,18:00-22:30",
    "wheelchair": "",
    "outdoor_seating": "",
    "rating": null,
    "review_count": null
  },
  {
    "osm_id": 769482802,
    "osm_type": "node",
    "name": "Brasserie Park Café",
    "address": "Brussels, Belgium",
    "lat": 50.9085612,
    "lng": 4.3067734,
    "cuisine": "Restaurant",
    "amenity": "restaurant",
    "website": "",
    "phone": "",
    "opening_hours": "",
    "wheelchair": "limited",
    "outdoor_seating": "",
    "rating": null,
    "review_count": null
  },
  {
    "osm_id": 772630726,
    "osm_type": "node",
    "name": "Kras Mat",
    "address": "Brussels, Belgium",
    "lat": 50.8634349,
    "lng": 4.3764355,
    "cuisine": "Pancake",
    "amenity": "restaurant",
    "website": "",
    "phone": "",
    "opening_hours": "",
    "wheelchair": "",
    "outdoor_seating": "",
    "rating": null,
    "review_count": null
  },
  {
    "osm_id": 772630727,
    "osm_type": "node",
    "name": "La Buca di Bacco",
    "address": "Brussels, Belgium",
    "lat": 50.8634325,
    "lng": 4.3766752,
    "cuisine": "Italian",
    "amenity": "restaurant",
    "website": "",
    "phone": "",
    "opening_hours": "",
    "wheelchair": "",
    "outdoor_seating": "",
    "rating": null,
    "review_count": null
  },
  {
    "osm_id": 772630734,
    "osm_type": "node",
    "name": "Snack Joker",
    "address": "Brussels, Belgium",
    "lat": 50.8634477,
    "lng": 4.3774407,
    "cuisine": "Kebab",
    "amenity": "fast_food",
    "website": "",
    "phone": "",
    "opening_hours": "Mo-Su 11:00-00:00",
    "wheelchair": "",
    "outdoor_seating": "",
    "rating": null,
    "review_count": null
  },
  {
    "osm_id": 779745789,
    "osm_type": "node",
    "name": "ag park",
    "address": "Brussels, Belgium",
    "lat": 50.8540141,
    "lng": 4.3532683,
    "cuisine": "American",
    "amenity": "fast_food",
    "website": "",
    "phone": "",
    "opening_hours": "",
    "wheelchair": "",
    "outdoor_seating": "",
    "rating": null,
    "review_count": null
  },
  {
    "osm_id": 796252937,
    "osm_type": "node",
    "name": "La Table Saint-Pierre",
    "address": "Brussels, Belgium",
    "lat": 50.8371319,
    "lng": 4.4180123,
    "cuisine": "French",
    "amenity": "restaurant",
    "website": "",
    "phone": "",
    "opening_hours": "Mo-Fr 12:00-14:00, 19:00-22:00; Sa 12:00-14:00",
    "wheelchair": "",
    "outdoor_seating": "",
    "rating": null,
    "review_count": null
  },
  {
    "osm_id": 796253129,
    "osm_type": "node",
    "name": "Galya",
    "address": "Brussels, Belgium",
    "lat": 50.8375171,
    "lng": 4.4156212,
    "cuisine": "Restaurant",
    "amenity": "restaurant",
    "website": "",
    "phone": "",
    "opening_hours": "",
    "wheelchair": "",
    "outdoor_seating": "",
    "rating": null,
    "review_count": null
  },
  {
    "osm_id": 797084329,
    "osm_type": "node",
    "name": "La Stazione Alimentari",
    "address": "Brussels, Belgium",
    "lat": 50.8139143,
    "lng": 4.3388962,
    "cuisine": "Italian",
    "amenity": "restaurant",
    "website": "",
    "phone": "",
    "opening_hours": "Tu,We 10:00-19:00; Th-Sa 10:00-22:30",
    "wheelchair": "",
    "outdoor_seating": "",
    "rating": null,
    "review_count": null
  },
  {
    "osm_id": 813178738,
    "osm_type": "node",
    "name": "Il Carrettino",
    "address": "Peperstraat 2, 3080, Tervuren",
    "lat": 50.8228791,
    "lng": 4.513138,
    "cuisine": "Italian_Pizza",
    "amenity": "restaurant",
    "website": "https://www.ilcarrettino.be/",
    "phone": "+32 2 767 64 01",
    "opening_hours": "We-Su 12:00-14:00,18:00-22:00; Tu 18:00-22:00 open \"Take-away pizza only\"",
    "wheelchair": "no",
    "outdoor_seating": "",
    "rating": null,
    "review_count": null
  },
  {
    "osm_id": 826822810,
    "osm_type": "node",
    "name": "Friterie de la Barrière",
    "address": "Brussels, Belgium",
    "lat": 50.8266144,
    "lng": 4.3429613,
    "cuisine": "Friture",
    "amenity": "fast_food",
    "website": "",
    "phone": "",
    "opening_hours": "Mo-Su 11:00-01:00",
    "wheelchair": "",
    "outdoor_seating": "",
    "rating": null,
    "review_count": null
  },
  {
    "osm_id": 826830634,
    "osm_type": "node",
    "name": "Belgo Nero",
    "address": "Brussels, Belgium",
    "lat": 50.8333185,
    "lng": 4.3565909,
    "cuisine": "Restaurant",
    "amenity": "restaurant",
    "website": "",
    "phone": "",
    "opening_hours": "",
    "wheelchair": "",
    "outdoor_seating": "",
    "rating": null,
    "review_count": null
  },
  {
    "osm_id": 843728921,
    "osm_type": "node",
    "name": "Houtsiplou",
    "address": "Brussels, Belgium",
    "lat": 50.8431302,
    "lng": 4.3460212,
    "cuisine": "American",
    "amenity": "restaurant",
    "website": "",
    "phone": "",
    "opening_hours": "Tu-Su unknown; Mo off",
    "wheelchair": "no",
    "outdoor_seating": "",
    "rating": null,
    "review_count": null
  },
  {
    "osm_id": 843728997,
    "osm_type": "node",
    "name": "Jardin des olives",
    "address": "Brussels, Belgium",
    "lat": 50.8453335,
    "lng": 4.3475373,
    "cuisine": "Restaurant",
    "amenity": "restaurant",
    "website": "",
    "phone": "",
    "opening_hours": "",
    "wheelchair": "",
    "outdoor_seating": "",
    "rating": null,
    "review_count": null
  },
  {
    "osm_id": 843729099,
    "osm_type": "node",
    "name": "Plattesteen",
    "address": "Brussels, Belgium",
    "lat": 50.8465379,
    "lng": 4.3491247,
    "cuisine": "Restaurant",
    "amenity": "restaurant",
    "website": "",
    "phone": "",
    "opening_hours": "",
    "wheelchair": "yes",
    "outdoor_seating": "",
    "rating": null,
    "review_count": null
  },
  {
    "osm_id": 851461770,
    "osm_type": "node",
    "name": "Italia",
    "address": "Brussels, Belgium",
    "lat": 50.8804937,
    "lng": 4.514905,
    "cuisine": "Restaurant",
    "amenity": "restaurant",
    "website": "",
    "phone": "",
    "opening_hours": "",
    "wheelchair": "",
    "outdoor_seating": "",
    "rating": null,
    "review_count": null
  },
  {
    "osm_id": 861605926,
    "osm_type": "node",
    "name": "Les Pêcheries",
    "address": "Brussels, Belgium",
    "lat": 50.8124581,
    "lng": 4.4100495,
    "cuisine": "French",
    "amenity": "restaurant",
    "website": "",
    "phone": "",
    "opening_hours": "PH,Su-Fr 12:00-14:30, PH,Mo-Su 18:30-22:00",
    "wheelchair": "",
    "outdoor_seating": "",
    "rating": null,
    "review_count": null
  },
  {
    "osm_id": 863002072,
    "osm_type": "node",
    "name": "Fritland",
    "address": "Brussels, Belgium",
    "lat": 50.8474102,
    "lng": 4.3506259,
    "cuisine": "Friture",
    "amenity": "fast_food",
    "website": "",
    "phone": "",
    "opening_hours": "11:00-01:00",
    "wheelchair": "no",
    "outdoor_seating": "yes",
    "rating": null,
    "review_count": null
  },
  {
    "osm_id": 866284084,
    "osm_type": "node",
    "name": "Domino's",
    "address": "Brussels, Belgium",
    "lat": 50.8721111,
    "lng": 4.3240124,
    "cuisine": "Italian",
    "amenity": "fast_food",
    "website": "",
    "phone": "",
    "opening_hours": "11:00-22:30",
    "wheelchair": "limited",
    "outdoor_seating": "",
    "rating": null,
    "review_count": null
  },
  {
    "osm_id": 866333004,
    "osm_type": "node",
    "name": "Patagaf",
    "address": "Brussels, Belgium",
    "lat": 50.8752174,
    "lng": 4.3296063,
    "cuisine": "French",
    "amenity": "restaurant",
    "website": "",
    "phone": "",
    "opening_hours": "Mo-Th 18:30-22:30; Fr-Sa 18:30-23:00",
    "wheelchair": "limited",
    "outdoor_seating": "",
    "rating": null,
    "review_count": null
  },
  {
    "osm_id": 866662259,
    "osm_type": "node",
    "name": "King",
    "address": "Brussels, Belgium",
    "lat": 50.848108,
    "lng": 4.3487069,
    "cuisine": "Italian",
    "amenity": "fast_food",
    "website": "",
    "phone": "",
    "opening_hours": "",
    "wheelchair": "",
    "outdoor_seating": "",
    "rating": null,
    "review_count": null
  },
  {
    "osm_id": 867006854,
    "osm_type": "node",
    "name": "Krob Kun",
    "address": "Brussels, Belgium",
    "lat": 50.8717133,
    "lng": 4.3256707,
    "cuisine": "Thai",
    "amenity": "restaurant",
    "website": "",
    "phone": "",
    "opening_hours": "Tu-Su 19:00-22:30, Tu-Fr,Su 12:00-14:00",
    "wheelchair": "no",
    "outdoor_seating": "",
    "rating": null,
    "review_count": null
  },
  {
    "osm_id": 867080709,
    "osm_type": "node",
    "name": "Panos",
    "address": "Brussels, Belgium",
    "lat": 50.8731277,
    "lng": 4.325762,
    "cuisine": "Sandwich",
    "amenity": "fast_food",
    "website": "",
    "phone": "",
    "opening_hours": "",
    "wheelchair": "limited",
    "outdoor_seating": "",
    "rating": null,
    "review_count": null
  },
  {
    "osm_id": 867597685,
    "osm_type": "node",
    "name": "La Penisola",
    "address": "Brussels, Belgium",
    "lat": 50.8740097,
    "lng": 4.3232077,
    "cuisine": "Italian",
    "amenity": "restaurant",
    "website": "",
    "phone": "",
    "opening_hours": "Tu-Su 12:00-15:00, 18:00-23:00",
    "wheelchair": "",
    "outdoor_seating": "street",
    "rating": null,
    "review_count": null
  },
  {
    "osm_id": 870363570,
    "osm_type": "node",
    "name": "Moods",
    "address": "Brussels, Belgium",
    "lat": 50.8465296,
    "lng": 4.3591367,
    "cuisine": "Restaurant",
    "amenity": "restaurant",
    "website": "",
    "phone": "",
    "opening_hours": "Mo-Fr 10:30-24:00; Sa 16:30-24:00; Su off",
    "wheelchair": "",
    "outdoor_seating": "no",
    "rating": null,
    "review_count": null
  },
  {
    "osm_id": 875626156,
    "osm_type": "node",
    "name": "Burger King",
    "address": "Brussels, Belgium",
    "lat": 50.8464304,
    "lng": 4.354362,
    "cuisine": "American",
    "amenity": "fast_food",
    "website": "",
    "phone": "",
    "opening_hours": "Su-Th 10:30-23:00; Fr-Sa 10:30-03:00",
    "wheelchair": "",
    "outdoor_seating": "yes",
    "rating": null,
    "review_count": null
  },
  {
    "osm_id": 897822264,
    "osm_type": "node",
    "name": "Bistro R",
    "address": "Brussels, Belgium",
    "lat": 50.8775134,
    "lng": 4.5051387,
    "cuisine": "Restaurant",
    "amenity": "restaurant",
    "website": "https://bistro-r.be/",
    "phone": "",
    "opening_hours": "",
    "wheelchair": "yes",
    "outdoor_seating": "",
    "rating": null,
    "review_count": null
  },
  {
    "osm_id": 897822271,
    "osm_type": "node",
    "name": "Osaka",
    "address": "Brussels, Belgium",
    "lat": 50.8776847,
    "lng": 4.505837,
    "cuisine": "Japanese",
    "amenity": "restaurant",
    "website": "",
    "phone": "+32 2 306 49 48",
    "opening_hours": "Mo-Su 12:00-14:30,18:00-22:00",
    "wheelchair": "",
    "outdoor_seating": "",
    "rating": null,
    "review_count": null
  },
  {
    "osm_id": 907174917,
    "osm_type": "node",
    "name": "Deliwok",
    "address": "Brussels, Belgium",
    "lat": 50.9175914,
    "lng": 4.5039799,
    "cuisine": "Chinese",
    "amenity": "restaurant",
    "website": "",
    "phone": "",
    "opening_hours": "",
    "wheelchair": "",
    "outdoor_seating": "",
    "rating": null,
    "review_count": null
  },
  {
    "osm_id": 907175906,
    "osm_type": "node",
    "name": "Bistro FM",
    "address": "Petrus Turcksinstraat 24",
    "lat": 50.9141677,
    "lng": 4.4384444,
    "cuisine": "Restaurant",
    "amenity": "restaurant",
    "website": "https://www.bistrofm.be/",
    "phone": "",
    "opening_hours": "",
    "wheelchair": "",
    "outdoor_seating": "",
    "rating": null,
    "review_count": null
  },
  {
    "osm_id": 933102661,
    "osm_type": "node",
    "name": "Takumi Tonkotsu Ramen",
    "address": "Brussels, Belgium",
    "lat": 50.85014,
    "lng": 4.3479085,
    "cuisine": "Japanese",
    "amenity": "restaurant",
    "website": "",
    "phone": "",
    "opening_hours": "Mo-Su 12:00-23:00",
    "wheelchair": "",
    "outdoor_seating": "",
    "rating": null,
    "review_count": null
  },
  {
    "osm_id": 941835236,
    "osm_type": "node",
    "name": "Zalen Ons Huis",
    "address": "Brussels, Belgium",
    "lat": 50.870122,
    "lng": 4.4496876,
    "cuisine": "Restaurant",
    "amenity": "restaurant",
    "website": "",
    "phone": "",
    "opening_hours": "",
    "wheelchair": "",
    "outdoor_seating": "",
    "rating": null,
    "review_count": null
  },
  {
    "osm_id": 943579245,
    "osm_type": "node",
    "name": "Le Lotus Bleu",
    "address": "Brussels, Belgium",
    "lat": 50.8997597,
    "lng": 4.3273097,
    "cuisine": "Japanese",
    "amenity": "restaurant",
    "website": "",
    "phone": "",
    "opening_hours": "",
    "wheelchair": "",
    "outdoor_seating": "",
    "rating": null,
    "review_count": null
  },
  {
    "osm_id": 943579275,
    "osm_type": "node",
    "name": "La Petite Fourchette",
    "address": "Brussels, Belgium",
    "lat": 50.9020132,
    "lng": 4.3366874,
    "cuisine": "Restaurant",
    "amenity": "restaurant",
    "website": "",
    "phone": "",
    "opening_hours": "Mo-Su 12:00-14:30,18:00-23:00",
    "wheelchair": "",
    "outdoor_seating": "",
    "rating": null,
    "review_count": null
  },
  {
    "osm_id": 943614330,
    "osm_type": "node",
    "name": "Frituur The Wemmel's",
    "address": "Brussels, Belgium",
    "lat": 50.902118,
    "lng": 4.3079249,
    "cuisine": "Friture",
    "amenity": "fast_food",
    "website": "",
    "phone": "",
    "opening_hours": "",
    "wheelchair": "",
    "outdoor_seating": "",
    "rating": null,
    "review_count": null
  },
  {
    "osm_id": 944264204,
    "osm_type": "node",
    "name": "Pizza Hut",
    "address": "Brussels, Belgium",
    "lat": 50.8956798,
    "lng": 4.3198465,
    "cuisine": "Italian",
    "amenity": "restaurant",
    "website": "",
    "phone": "",
    "opening_hours": "",
    "wheelchair": "",
    "outdoor_seating": "",
    "rating": null,
    "review_count": null
  },
  {
    "osm_id": 954546471,
    "osm_type": "node",
    "name": "Faraya",
    "address": "Brussels, Belgium",
    "lat": 50.9020224,
    "lng": 4.3177265,
    "cuisine": "Lebanese",
    "amenity": "restaurant",
    "website": "http://www.faraya.be",
    "phone": "",
    "opening_hours": "",
    "wheelchair": "",
    "outdoor_seating": "",
    "rating": null,
    "review_count": null
  },
  {
    "osm_id": 973764755,
    "osm_type": "node",
    "name": "Seyda Grill",
    "address": "Brussels, Belgium",
    "lat": 50.8821746,
    "lng": 4.4726546,
    "cuisine": "Kebab",
    "amenity": "fast_food",
    "website": "",
    "phone": "",
    "opening_hours": "",
    "wheelchair": "",
    "outdoor_seating": "no",
    "rating": null,
    "review_count": null
  },
  {
    "osm_id": 987459254,
    "osm_type": "node",
    "name": "Pizza Hut",
    "address": "Brussels, Belgium",
    "lat": 50.7860982,
    "lng": 4.5005683,
    "cuisine": "Italian",
    "amenity": "restaurant",
    "website": "",
    "phone": "",
    "opening_hours": "",
    "wheelchair": "",
    "outdoor_seating": "",
    "rating": null,
    "review_count": null
  },
  {
    "osm_id": 988635298,
    "osm_type": "node",
    "name": "Istanbul",
    "address": "Brussels, Belgium",
    "lat": 50.8624988,
    "lng": 4.515084,
    "cuisine": "Turkish",
    "amenity": "fast_food",
    "website": "",
    "phone": "",
    "opening_hours": "",
    "wheelchair": "no",
    "outdoor_seating": "",
    "rating": null,
    "review_count": null
  },
  {
    "osm_id": 988635616,
    "osm_type": "node",
    "name": "Namaste",
    "address": "Brussels, Belgium",
    "lat": 50.8633033,
    "lng": 4.5168413,
    "cuisine": "Indian",
    "amenity": "restaurant",
    "website": "",
    "phone": "",
    "opening_hours": "",
    "wheelchair": "limited",
    "outdoor_seating": "",
    "rating": null,
    "review_count": null
  },
  {
    "osm_id": 993030379,
    "osm_type": "node",
    "name": "Bab Dar",
    "address": "Brussels, Belgium",
    "lat": 50.8306047,
    "lng": 4.3560389,
    "cuisine": "Moroccan",
    "amenity": "restaurant",
    "website": "",
    "phone": "",
    "opening_hours": "Mo-Fr 12:00-14:30,19:00-22:30; Sa 19:00-22:30",
    "wheelchair": "no",
    "outdoor_seating": "",
    "rating": null,
    "review_count": null
  },
  {
    "osm_id": 993031209,
    "osm_type": "node",
    "name": "Le Prince",
    "address": "Brussels, Belgium",
    "lat": 50.8315803,
    "lng": 4.3563508,
    "cuisine": "Lebanese",
    "amenity": "restaurant",
    "website": "",
    "phone": "",
    "opening_hours": "Mo-Su 11:00-23:59,00:00-02:00",
    "wheelchair": "limited",
    "outdoor_seating": "yes",
    "rating": null,
    "review_count": null
  },
  {
    "osm_id": 993031293,
    "osm_type": "node",
    "name": "Gusti Pizzeria",
    "address": "Brussels, Belgium",
    "lat": 50.831597,
    "lng": 4.3560421,
    "cuisine": "Italian",
    "amenity": "fast_food",
    "website": "",
    "phone": "",
    "opening_hours": "Mo,We,Th 18:00-23:00, Fr,Sa 18:00-01:00, Su 19:00-23:00",
    "wheelchair": "",
    "outdoor_seating": "",
    "rating": null,
    "review_count": null
  },
  {
    "osm_id": 993032378,
    "osm_type": "node",
    "name": "Zatar",
    "address": "Brussels, Belgium",
    "lat": 50.831381,
    "lng": 4.356287,
    "cuisine": "Restaurant",
    "amenity": "restaurant",
    "website": "",
    "phone": "",
    "opening_hours": "",
    "wheelchair": "no",
    "outdoor_seating": "",
    "rating": null,
    "review_count": null
  },
  {
    "osm_id": 993033199,
    "osm_type": "node",
    "name": "Wing Street",
    "address": "Brussels, Belgium",
    "lat": 50.8314751,
    "lng": 4.3558002,
    "cuisine": "Chicken",
    "amenity": "fast_food",
    "website": "",
    "phone": "",
    "opening_hours": "",
    "wheelchair": "",
    "outdoor_seating": "",
    "rating": null,
    "review_count": null
  },
  {
    "osm_id": 1015069253,
    "osm_type": "node",
    "name": "Liloo",
    "address": "Brussels, Belgium",
    "lat": 50.8327719,
    "lng": 4.3867307,
    "cuisine": "Italian",
    "amenity": "restaurant",
    "website": "",
    "phone": "",
    "opening_hours": "",
    "wheelchair": "",
    "outdoor_seating": "",
    "rating": null,
    "review_count": null
  },
  {
    "osm_id": 1025220504,
    "osm_type": "node",
    "name": "Friture René",
    "address": "Brussels, Belgium",
    "lat": 50.8357954,
    "lng": 4.3111864,
    "cuisine": "Belgian",
    "amenity": "restaurant",
    "website": "",
    "phone": "",
    "opening_hours": "Mo-Tu off;We-Su 11:45-14:30,18:00-22:00",
    "wheelchair": "",
    "outdoor_seating": "",
    "rating": null,
    "review_count": null
  },
  {
    "osm_id": 1032195224,
    "osm_type": "node",
    "name": "Quick",
    "address": "Brussels, Belgium",
    "lat": 50.8162278,
    "lng": 4.3896815,
    "cuisine": "American",
    "amenity": "fast_food",
    "website": "",
    "phone": "",
    "opening_hours": "Su-We 11:00-01:00; Th-Sa 11:00-04:00",
    "wheelchair": "",
    "outdoor_seating": "yes",
    "rating": null,
    "review_count": null
  },
  {
    "osm_id": 1037462990,
    "osm_type": "node",
    "name": "Café Capitale",
    "address": "Brussels, Belgium",
    "lat": 50.8464956,
    "lng": 4.3498354,
    "cuisine": "Coffee_Shop",
    "amenity": "cafe",
    "website": "",
    "phone": "",
    "opening_hours": "Mo-Fr 08:00-19:00, Sa-Su 08:30-19:00",
    "wheelchair": "yes",
    "outdoor_seating": "yes",
    "rating": null,
    "review_count": null
  },
  {
    "osm_id": 1069393817,
    "osm_type": "node",
    "name": "Chez Hassan",
    "address": "Brussels, Belgium",
    "lat": 50.792003,
    "lng": 4.332963,
    "cuisine": "Moroccan",
    "amenity": "restaurant",
    "website": "https://resto-calvoet.be",
    "phone": "",
    "opening_hours": "",
    "wheelchair": "",
    "outdoor_seating": "",
    "rating": null,
    "review_count": null
  },
  {
    "osm_id": 1072688440,
    "osm_type": "node",
    "name": "Pizza Hut",
    "address": "Weiveldlaan 10B",
    "lat": 50.8699058,
    "lng": 4.4910115,
    "cuisine": "Italian",
    "amenity": "restaurant",
    "website": "https://restaurants.pizzahut.be/restaurant/restaurant-zaventem",
    "phone": "+32 2 725 48 61",
    "opening_hours": "Su-Th 11:30-21:00; Fr-Sa 11:30-22:00",
    "wheelchair": "yes",
    "outdoor_seating": "",
    "rating": null,
    "review_count": null
  },
  {
    "osm_id": 1078589811,
    "osm_type": "node",
    "name": "Snack Verdun",
    "address": "Brussels, Belgium",
    "lat": 50.891687,
    "lng": 4.4179829,
    "cuisine": "Restaurant",
    "amenity": "fast_food",
    "website": "",
    "phone": "",
    "opening_hours": "",
    "wheelchair": "no",
    "outdoor_seating": "",
    "rating": null,
    "review_count": null
  },
  {
    "osm_id": 1078600837,
    "osm_type": "node",
    "name": "Taverne Milde",
    "address": "Brussels, Belgium",
    "lat": 50.8942059,
    "lng": 4.4352944,
    "cuisine": "Restaurant",
    "amenity": "restaurant",
    "website": "",
    "phone": "",
    "opening_hours": "",
    "wheelchair": "",
    "outdoor_seating": "",
    "rating": null,
    "review_count": null
  },
  {
    "osm_id": 1078600853,
    "osm_type": "node",
    "name": "MISMO",
    "address": "Kosterstraat 1, 1831, Diegem",
    "lat": 50.8935753,
    "lng": 4.4352702,
    "cuisine": "Restaurant",
    "amenity": "restaurant",
    "website": "https://mismo.bar/",
    "phone": "+32 2 720 23 80",
    "opening_hours": "",
    "wheelchair": "",
    "outdoor_seating": "",
    "rating": null,
    "review_count": null
  },
  {
    "osm_id": 1078600856,
    "osm_type": "node",
    "name": "Rosso Forno",
    "address": "Brussels, Belgium",
    "lat": 50.8947283,
    "lng": 4.43324,
    "cuisine": "Italian",
    "amenity": "restaurant",
    "website": "",
    "phone": "",
    "opening_hours": "",
    "wheelchair": "",
    "outdoor_seating": "",
    "rating": null,
    "review_count": null
  },
  {
    "osm_id": 1078600859,
    "osm_type": "node",
    "name": "De Spits Snack",
    "address": "Brussels, Belgium",
    "lat": 50.8943161,
    "lng": 4.4352152,
    "cuisine": "Restaurant",
    "amenity": "fast_food",
    "website": "",
    "phone": "",
    "opening_hours": "",
    "wheelchair": "",
    "outdoor_seating": "",
    "rating": null,
    "review_count": null
  },
  {
    "osm_id": 1094562793,
    "osm_type": "node",
    "name": "Fritshop",
    "address": "Brussels, Belgium",
    "lat": 50.9086293,
    "lng": 4.3091229,
    "cuisine": "Restaurant",
    "amenity": "fast_food",
    "website": "",
    "phone": "",
    "opening_hours": "",
    "wheelchair": "limited",
    "outdoor_seating": "",
    "rating": null,
    "review_count": null
  },
  {
    "osm_id": 1106127078,
    "osm_type": "node",
    "name": "Brasserie de l’Expo",
    "address": "Brussels, Belgium",
    "lat": 50.8903759,
    "lng": 4.3362078,
    "cuisine": "Restaurant",
    "amenity": "restaurant",
    "website": "",
    "phone": "",
    "opening_hours": "",
    "wheelchair": "",
    "outdoor_seating": "yes",
    "rating": null,
    "review_count": null
  },
  {
    "osm_id": 1106127085,
    "osm_type": "node",
    "name": "Il Rifugio",
    "address": "Brussels, Belgium",
    "lat": 50.890264,
    "lng": 4.3373237,
    "cuisine": "Italian",
    "amenity": "restaurant",
    "website": "",
    "phone": "",
    "opening_hours": "12:00-14:00,18:00-22:00; Tu,We off; Fr 12:00-14:00,18:00-22:30; Sa 18:00-22:30",
    "wheelchair": "",
    "outdoor_seating": "yes",
    "rating": null,
    "review_count": null
  },
  {
    "osm_id": 1106144210,
    "osm_type": "node",
    "name": "Quick",
    "address": "Brussels, Belgium",
    "lat": 50.8955648,
    "lng": 4.3196018,
    "cuisine": "American",
    "amenity": "fast_food",
    "website": "",
    "phone": "+32 2 461 04 74",
    "opening_hours": "",
    "wheelchair": "",
    "outdoor_seating": "",
    "rating": null,
    "review_count": null
  },
  {
    "osm_id": 1106144225,
    "osm_type": "node",
    "name": "Wok City",
    "address": "Brussels, Belgium",
    "lat": 50.8951935,
    "lng": 4.3193239,
    "cuisine": "Chinese",
    "amenity": "restaurant",
    "website": "",
    "phone": "",
    "opening_hours": "",
    "wheelchair": "",
    "outdoor_seating": "",
    "rating": null,
    "review_count": null
  },
  {
    "osm_id": 1113153776,
    "osm_type": "node",
    "name": "Snack-Resto La Gourmandise",
    "address": "Brussels, Belgium",
    "lat": 50.8598038,
    "lng": 4.3626955,
    "cuisine": "Kebab",
    "amenity": "fast_food",
    "website": "",
    "phone": "",
    "opening_hours": "",
    "wheelchair": "",
    "outdoor_seating": "",
    "rating": null,
    "review_count": null
  },
  {
    "osm_id": 1113154128,
    "osm_type": "node",
    "name": "Le Bienvenu",
    "address": "Brussels, Belgium",
    "lat": 50.8600402,
    "lng": 4.3629002,
    "cuisine": "Kebab",
    "amenity": "fast_food",
    "website": "",
    "phone": "",
    "opening_hours": "",
    "wheelchair": "",
    "outdoor_seating": "",
    "rating": null,
    "review_count": null
  },
  {
    "osm_id": 1115346957,
    "osm_type": "node",
    "name": "Emirdag Köfteçısi",
    "address": "Brussels, Belgium",
    "lat": 50.8643001,
    "lng": 4.3663385,
    "cuisine": "Kebab",
    "amenity": "fast_food",
    "website": "",
    "phone": "",
    "opening_hours": "",
    "wheelchair": "",
    "outdoor_seating": "",
    "rating": null,
    "review_count": null
  },
  {
    "osm_id": 1118890597,
    "osm_type": "node",
    "name": "Atlas",
    "address": "Brussels, Belgium",
    "lat": 50.8595079,
    "lng": 4.3624392,
    "cuisine": "Kebab",
    "amenity": "fast_food",
    "website": "",
    "phone": "",
    "opening_hours": "",
    "wheelchair": "",
    "outdoor_seating": "",
    "rating": null,
    "review_count": null
  },
  {
    "osm_id": 1119991899,
    "osm_type": "node",
    "name": "Snack Walim",
    "address": "Brussels, Belgium",
    "lat": 50.861068,
    "lng": 4.3641401,
    "cuisine": "Restaurant",
    "amenity": "fast_food",
    "website": "",
    "phone": "",
    "opening_hours": "",
    "wheelchair": "",
    "outdoor_seating": "",
    "rating": null,
    "review_count": null
  },
  {
    "osm_id": 1119991907,
    "osm_type": "node",
    "name": "Haci Baba",
    "address": "Brussels, Belgium",
    "lat": 50.861374,
    "lng": 4.3638893,
    "cuisine": "Restaurant",
    "amenity": "fast_food",
    "website": "",
    "phone": "",
    "opening_hours": "",
    "wheelchair": "",
    "outdoor_seating": "",
    "rating": null,
    "review_count": null
  },
  {
    "osm_id": 1121797659,
    "osm_type": "node",
    "name": "Thai Cafe",
    "address": "Brussels, Belgium",
    "lat": 50.822537,
    "lng": 4.3547235,
    "cuisine": "Asian",
    "amenity": "restaurant",
    "website": "",
    "phone": "",
    "opening_hours": "",
    "wheelchair": "",
    "outdoor_seating": "",
    "rating": null,
    "review_count": null
  },
  {
    "osm_id": 1128036661,
    "osm_type": "node",
    "name": "Taverne-Snack De V.W. Cox",
    "address": "Brussels, Belgium",
    "lat": 50.8885434,
    "lng": 4.2675711,
    "cuisine": "Restaurant",
    "amenity": "fast_food",
    "website": "",
    "phone": "",
    "opening_hours": "",
    "wheelchair": "",
    "outdoor_seating": "",
    "rating": null,
    "review_count": null
  },
  {
    "osm_id": 1138938717,
    "osm_type": "node",
    "name": "Mont Liban",
    "address": "Brussels, Belgium",
    "lat": 50.8302393,
    "lng": 4.3589244,
    "cuisine": "Lebanese",
    "amenity": "restaurant",
    "website": "",
    "phone": "",
    "opening_hours": "",
    "wheelchair": "",
    "outdoor_seating": "",
    "rating": null,
    "review_count": null
  },
  {
    "osm_id": 1138950172,
    "osm_type": "node",
    "name": "Frasca",
    "address": "Brussels, Belgium",
    "lat": 50.8294218,
    "lng": 4.359377,
    "cuisine": "Italian",
    "amenity": "restaurant",
    "website": "",
    "phone": "",
    "opening_hours": "We-Sa 10:00-22:00",
    "wheelchair": "",
    "outdoor_seating": "",
    "rating": null,
    "review_count": null
  },
  {
    "osm_id": 1147017697,
    "osm_type": "node",
    "name": "Les Deux Maisons",
    "address": "Brussels, Belgium",
    "lat": 50.8414031,
    "lng": 4.4598395,
    "cuisine": "Restaurant",
    "amenity": "restaurant",
    "website": "",
    "phone": "",
    "opening_hours": "",
    "wheelchair": "",
    "outdoor_seating": "",
    "rating": null,
    "review_count": null
  },
  {
    "osm_id": 1150829149,
    "osm_type": "node",
    "name": "La Spartiate",
    "address": "Brussels, Belgium",
    "lat": 50.900237,
    "lng": 4.3283509,
    "cuisine": "Greek",
    "amenity": "restaurant",
    "website": "",
    "phone": "",
    "opening_hours": "",
    "wheelchair": "",
    "outdoor_seating": "",
    "rating": null,
    "review_count": null
  },
  {
    "osm_id": 1150830118,
    "osm_type": "node",
    "name": "L'Auberge de l'Isard",
    "address": "Brussels, Belgium",
    "lat": 50.8950483,
    "lng": 4.3189994,
    "cuisine": "Restaurant",
    "amenity": "restaurant",
    "website": "",
    "phone": "",
    "opening_hours": "",
    "wheelchair": "",
    "outdoor_seating": "",
    "rating": null,
    "review_count": null
  },
  {
    "osm_id": 1150966521,
    "osm_type": "node",
    "name": "la rosa piu",
    "address": "Brussels, Belgium",
    "lat": 50.8848972,
    "lng": 4.2736991,
    "cuisine": "Italian",
    "amenity": "restaurant",
    "website": "",
    "phone": "",
    "opening_hours": "",
    "wheelchair": "",
    "outdoor_seating": "",
    "rating": null,
    "review_count": null
  },
  {
    "osm_id": 1151269399,
    "osm_type": "node",
    "name": "Le Cercle des Voyageurs",
    "address": "Brussels, Belgium",
    "lat": 50.8452613,
    "lng": 4.3493227,
    "cuisine": "International",
    "amenity": "restaurant",
    "website": "",
    "phone": "",
    "opening_hours": "Mo-Su 11:00-00:00",
    "wheelchair": "",
    "outdoor_seating": "",
    "rating": null,
    "review_count": null
  },
  {
    "osm_id": 1151269409,
    "osm_type": "node",
    "name": "Tapas Locas",
    "address": "Brussels, Belgium",
    "lat": 50.8458449,
    "lng": 4.3484449,
    "cuisine": "Spanish",
    "amenity": "restaurant",
    "website": "",
    "phone": "",
    "opening_hours": "",
    "wheelchair": "",
    "outdoor_seating": "",
    "rating": null,
    "review_count": null
  },
  {
    "osm_id": 1151269436,
    "osm_type": "node",
    "name": "Bombay Inn",
    "address": "Brussels, Belgium",
    "lat": 50.8486606,
    "lng": 4.3534104,
    "cuisine": "Indian",
    "amenity": "restaurant",
    "website": "",
    "phone": "",
    "opening_hours": "Mo-Sa,PH 12:00-14:30,18:00-23:30; Su 17:00-22:30",
    "wheelchair": "",
    "outdoor_seating": "yes",
    "rating": null,
    "review_count": null
  },
  {
    "osm_id": 1155132213,
    "osm_type": "node",
    "name": "Snack Felix",
    "address": "Brussels, Belgium",
    "lat": 50.8506835,
    "lng": 4.392094,
    "cuisine": "Turkish",
    "amenity": "fast_food",
    "website": "",
    "phone": "",
    "opening_hours": "Mo-Su 11:30-24:00",
    "wheelchair": "",
    "outdoor_seating": "",
    "rating": null,
    "review_count": null
  },
  {
    "osm_id": 1189604924,
    "osm_type": "node",
    "name": "Friterie Kessner",
    "address": "Brussels, Belgium",
    "lat": 50.8856937,
    "lng": 4.3326475,
    "cuisine": "Friture",
    "amenity": "fast_food",
    "website": "",
    "phone": "",
    "opening_hours": "",
    "wheelchair": "",
    "outdoor_seating": "",
    "rating": null,
    "review_count": null
  },
  {
    "osm_id": 1189829614,
    "osm_type": "node",
    "name": "de Plezanten Hof",
    "address": "Brussels, Belgium",
    "lat": 50.9102225,
    "lng": 4.2495598,
    "cuisine": "Restaurant",
    "amenity": "restaurant",
    "website": "",
    "phone": "",
    "opening_hours": "",
    "wheelchair": "",
    "outdoor_seating": "",
    "rating": null,
    "review_count": null
  },
  {
    "osm_id": 1189927187,
    "osm_type": "node",
    "name": "Cantina La Général",
    "address": "Brussels, Belgium",
    "lat": 50.8171005,
    "lng": 4.3678019,
    "cuisine": "Mexican",
    "amenity": "restaurant",
    "website": "",
    "phone": "",
    "opening_hours": "Mo-Sa 18:30-23:00; Tu-Fr 12:00-15:00",
    "wheelchair": "",
    "outdoor_seating": "",
    "rating": null,
    "review_count": null
  },
  {
    "osm_id": 1189927201,
    "osm_type": "node",
    "name": "O Liban",
    "address": "Brussels, Belgium",
    "lat": 50.8172833,
    "lng": 4.3667435,
    "cuisine": "Lebanese",
    "amenity": "restaurant",
    "website": "",
    "phone": "",
    "opening_hours": "Tu-Sa 10:30-23:00; Su 10:30-22:30",
    "wheelchair": "",
    "outdoor_seating": "",
    "rating": null,
    "review_count": null
  },
  {
    "osm_id": 1191725633,
    "osm_type": "node",
    "name": "Nona Pizza",
    "address": "Brussels, Belgium",
    "lat": 50.8390515,
    "lng": 4.3979875,
    "cuisine": "Italian",
    "amenity": "restaurant",
    "website": "",
    "phone": "",
    "opening_hours": "Mo-Fr 12:00-14:30,18:00-24:00; Sa,Su 12:00-24:00",
    "wheelchair": "no",
    "outdoor_seating": "",
    "rating": null,
    "review_count": null
  },
  {
    "osm_id": 1195587463,
    "osm_type": "node",
    "name": "La Maison des gaufres",
    "address": "Brussels, Belgium",
    "lat": 50.846351,
    "lng": 4.3544633,
    "cuisine": "Waffle",
    "amenity": "fast_food",
    "website": "",
    "phone": "",
    "opening_hours": "",
    "wheelchair": "",
    "outdoor_seating": "",
    "rating": null,
    "review_count": null
  },
  {
    "osm_id": 1200285352,
    "osm_type": "node",
    "name": "By Garden's 2000",
    "address": "Brussels, Belgium",
    "lat": 50.871189,
    "lng": 4.2663679,
    "cuisine": "Restaurant",
    "amenity": "restaurant",
    "website": "",
    "phone": "",
    "opening_hours": "",
    "wheelchair": "",
    "outdoor_seating": "",
    "rating": null,
    "review_count": null
  },
  {
    "osm_id": 1200406981,
    "osm_type": "node",
    "name": "Rodos Palace",
    "address": "Brussels, Belgium",
    "lat": 50.9058363,
    "lng": 4.3073983,
    "cuisine": "Greek",
    "amenity": "restaurant",
    "website": "",
    "phone": "",
    "opening_hours": "",
    "wheelchair": "",
    "outdoor_seating": "",
    "rating": null,
    "review_count": null
  },
  {
    "osm_id": 1200411778,
    "osm_type": "node",
    "name": "Casa Mia",
    "address": "Brussels, Belgium",
    "lat": 50.9014542,
    "lng": 4.3582809,
    "cuisine": "Italian",
    "amenity": "restaurant",
    "website": "",
    "phone": "",
    "opening_hours": "11:30-23:00",
    "wheelchair": "",
    "outdoor_seating": "",
    "rating": null,
    "review_count": null
  },
  {
    "osm_id": 1210483195,
    "osm_type": "node",
    "name": "The Place to Be",
    "address": "Brussels, Belgium",
    "lat": 50.8893082,
    "lng": 4.3267613,
    "cuisine": "Restaurant",
    "amenity": "restaurant",
    "website": "",
    "phone": "",
    "opening_hours": "Mo-Th 11:30-23:00; Fr 11:30-24:00; Sa 11:30-23:45; Su 11:30-22:00",
    "wheelchair": "",
    "outdoor_seating": "yes",
    "rating": null,
    "review_count": null
  },
  {
    "osm_id": 1210486413,
    "osm_type": "node",
    "name": "L'antipasto",
    "address": "Brusselsesteenweg 814, 1731, Asse",
    "lat": 50.8767939,
    "lng": 4.2835404,
    "cuisine": "Italian",
    "amenity": "restaurant",
    "website": "",
    "phone": "",
    "opening_hours": "",
    "wheelchair": "",
    "outdoor_seating": "",
    "rating": null,
    "review_count": null
  },
  {
    "osm_id": 1211881523,
    "osm_type": "node",
    "name": "Caho's Garden",
    "address": "Brusselstraat 348, 1702",
    "lat": 50.8709074,
    "lng": 4.2554377,
    "cuisine": "Chinese",
    "amenity": "restaurant",
    "website": "https://cahosgarden.be/",
    "phone": "+32 2 4631422",
    "opening_hours": "Th-Tu 12:00-15:00, 17:30-23:00",
    "wheelchair": "",
    "outdoor_seating": "",
    "rating": null,
    "review_count": null
  },
  {
    "osm_id": 1212933035,
    "osm_type": "node",
    "name": "Eat-In-Wemmel",
    "address": "Brussels, Belgium",
    "lat": 50.8996516,
    "lng": 4.3188175,
    "cuisine": "Restaurant",
    "amenity": "fast_food",
    "website": "",
    "phone": "",
    "opening_hours": "",
    "wheelchair": "",
    "outdoor_seating": "",
    "rating": null,
    "review_count": null
  },
  {
    "osm_id": 1221337369,
    "osm_type": "node",
    "name": "Benvenutto",
    "address": "Brussels, Belgium",
    "lat": 50.875071,
    "lng": 4.3404797,
    "cuisine": "Italian",
    "amenity": "restaurant",
    "website": "",
    "phone": "",
    "opening_hours": "",
    "wheelchair": "",
    "outdoor_seating": "",
    "rating": null,
    "review_count": null
  },
  {
    "osm_id": 1221352577,
    "osm_type": "node",
    "name": "Acropolis",
    "address": "Brussels, Belgium",
    "lat": 50.8691124,
    "lng": 4.3283387,
    "cuisine": "Greek",
    "amenity": "restaurant",
    "website": "",
    "phone": "",
    "opening_hours": "",
    "wheelchair": "",
    "outdoor_seating": "",
    "rating": null,
    "review_count": null
  },
  {
    "osm_id": 1221389154,
    "osm_type": "node",
    "name": "Frituur Rosalie",
    "address": "Brussels, Belgium",
    "lat": 50.8653793,
    "lng": 4.2449404,
    "cuisine": "Friture",
    "amenity": "fast_food",
    "website": "",
    "phone": "",
    "opening_hours": "",
    "wheelchair": "",
    "outdoor_seating": "",
    "rating": null,
    "review_count": null
  },
  {
    "osm_id": 1231567297,
    "osm_type": "node",
    "name": "Domino's",
    "address": "Brussels, Belgium",
    "lat": 50.829544,
    "lng": 4.3701066,
    "cuisine": "Italian",
    "amenity": "fast_food",
    "website": "",
    "phone": "",
    "opening_hours": "Mo-Su 11:00-21:30",
    "wheelchair": "",
    "outdoor_seating": "",
    "rating": null,
    "review_count": null
  },
  {
    "osm_id": 1240068987,
    "osm_type": "node",
    "name": "Apuntemento",
    "address": "Brusselstraat 210, 1702",
    "lat": 50.8707781,
    "lng": 4.2675156,
    "cuisine": "Italian",
    "amenity": "restaurant",
    "website": "https://www.lappuntamento.be/",
    "phone": "+32 2 468 55 40",
    "opening_hours": "Su-Th 12:00-14:30, 18:00-22:00; Fr 12:00-14:30, 18:00-22:30; Sa 12:00-14:00, 18:00-22:30",
    "wheelchair": "",
    "outdoor_seating": "",
    "rating": null,
    "review_count": null
  },
  {
    "osm_id": 1242137440,
    "osm_type": "node",
    "name": "Lloyd Coffee Eatery",
    "address": "Brussels, Belgium",
    "lat": 50.8337948,
    "lng": 4.3552048,
    "cuisine": "Coffee_Shop",
    "amenity": "cafe",
    "website": "",
    "phone": "",
    "opening_hours": "Mo-Fr 08:00-20:00; Sa,Su 09:00-20:00",
    "wheelchair": "yes",
    "outdoor_seating": "yes",
    "rating": null,
    "review_count": null
  },
  {
    "osm_id": 1248528402,
    "osm_type": "node",
    "name": "Noa Resto-Lounge-Bar",
    "address": "Brussels, Belgium",
    "lat": 50.8309292,
    "lng": 4.234692,
    "cuisine": "Restaurant",
    "amenity": "restaurant",
    "website": "",
    "phone": "",
    "opening_hours": "",
    "wheelchair": "",
    "outdoor_seating": "",
    "rating": null,
    "review_count": null
  },
  {
    "osm_id": 1255440202,
    "osm_type": "node",
    "name": "Jade Village",
    "address": "Brussels, Belgium",
    "lat": 50.8978054,
    "lng": 4.3226332,
    "cuisine": "Chinese",
    "amenity": "restaurant",
    "website": "",
    "phone": "",
    "opening_hours": "",
    "wheelchair": "",
    "outdoor_seating": "",
    "rating": null,
    "review_count": null
  },
  {
    "osm_id": 1255443917,
    "osm_type": "node",
    "name": "Alexander Grill",
    "address": "Brussels, Belgium",
    "lat": 50.8838838,
    "lng": 4.2745655,
    "cuisine": "Restaurant",
    "amenity": "fast_food",
    "website": "",
    "phone": "",
    "opening_hours": "",
    "wheelchair": "",
    "outdoor_seating": "",
    "rating": null,
    "review_count": null
  },
  {
    "osm_id": 1256649020,
    "osm_type": "node",
    "name": "Pizzeria Villa Borghese",
    "address": "Hoogstraat 1, 1650",
    "lat": 50.7665566,
    "lng": 4.3089591,
    "cuisine": "Italian",
    "amenity": "restaurant",
    "website": "",
    "phone": "",
    "opening_hours": "",
    "wheelchair": "",
    "outdoor_seating": "",
    "rating": null,
    "review_count": null
  },
  {
    "osm_id": 1258064151,
    "osm_type": "node",
    "name": "Frituur Dilbeek",
    "address": "Brussels, Belgium",
    "lat": 50.8437767,
    "lng": 4.2606139,
    "cuisine": "American",
    "amenity": "fast_food",
    "website": "",
    "phone": "",
    "opening_hours": "",
    "wheelchair": "",
    "outdoor_seating": "",
    "rating": null,
    "review_count": null
  },
  {
    "osm_id": 1258238698,
    "osm_type": "node",
    "name": "Golden Corner",
    "address": "Brussels, Belgium",
    "lat": 50.8937413,
    "lng": 4.3827654,
    "cuisine": "Restaurant",
    "amenity": "fast_food",
    "website": "",
    "phone": "",
    "opening_hours": "Mo 00:00-01:00; Tu 11:30-23:00; We-Su 00:00-01:00,11:30-23:00",
    "wheelchair": "",
    "outdoor_seating": "yes",
    "rating": null,
    "review_count": null
  },
  {
    "osm_id": 1259503545,
    "osm_type": "node",
    "name": "La Luna",
    "address": "Brussels, Belgium",
    "lat": 50.8628657,
    "lng": 4.3065669,
    "cuisine": "Restaurant",
    "amenity": "restaurant",
    "website": "",
    "phone": "",
    "opening_hours": "",
    "wheelchair": "",
    "outdoor_seating": "",
    "rating": null,
    "review_count": null
  },
  {
    "osm_id": 1260886015,
    "osm_type": "node",
    "name": "Snack Pozyy",
    "address": "Brussels, Belgium",
    "lat": 50.8256078,
    "lng": 4.3544416,
    "cuisine": "Kebab",
    "amenity": "fast_food",
    "website": "",
    "phone": "",
    "opening_hours": "",
    "wheelchair": "limited",
    "outdoor_seating": "no",
    "rating": null,
    "review_count": null
  },
  {
    "osm_id": 1262407432,
    "osm_type": "node",
    "name": "La Cage",
    "address": "Brussels, Belgium",
    "lat": 50.8719198,
    "lng": 4.3755327,
    "cuisine": "Friture",
    "amenity": "fast_food",
    "website": "",
    "phone": "",
    "opening_hours": "",
    "wheelchair": "",
    "outdoor_seating": "",
    "rating": null,
    "review_count": null
  },
  {
    "osm_id": 1262407447,
    "osm_type": "node",
    "name": "Ciao Ciao",
    "address": "Brussels, Belgium",
    "lat": 50.8731624,
    "lng": 4.3770781,
    "cuisine": "Italian",
    "amenity": "restaurant",
    "website": "",
    "phone": "",
    "opening_hours": "Mo-Fr 12:00-14:00,18:00-21:30",
    "wheelchair": "",
    "outdoor_seating": "",
    "rating": null,
    "review_count": null
  },
  {
    "osm_id": 1265503651,
    "osm_type": "node",
    "name": "Point chaud",
    "address": "Brussels, Belgium",
    "lat": 50.8353073,
    "lng": 4.3336835,
    "cuisine": "Sandwich",
    "amenity": "fast_food",
    "website": "https://www.pointchaud.be/0149/fr/603/BRUXELLES-GARE-DU-MIDI-BRUSSEL-STATION-ZUID",
    "phone": "",
    "opening_hours": "Mo-Su 05:30-19:00; PH 05:30-19:00",
    "wheelchair": "yes",
    "outdoor_seating": "no",
    "rating": null,
    "review_count": null
  },
  {
    "osm_id": 1268801667,
    "osm_type": "node",
    "name": "L'Auberge Kasterlinden",
    "address": "Brussels, Belgium",
    "lat": 50.8559928,
    "lng": 4.2904331,
    "cuisine": "Restaurant",
    "amenity": "restaurant",
    "website": "",
    "phone": "",
    "opening_hours": "Mo-Su 18:00-23:00; Tu-Su 11:00-15:00",
    "wheelchair": "",
    "outdoor_seating": "",
    "rating": null,
    "review_count": null
  },
  {
    "osm_id": 1268806728,
    "osm_type": "node",
    "name": "Resto Orient Express",
    "address": "Brussels, Belgium",
    "lat": 50.8447613,
    "lng": 4.2753759,
    "cuisine": "Chinese",
    "amenity": "restaurant",
    "website": "",
    "phone": "",
    "opening_hours": "",
    "wheelchair": "",
    "outdoor_seating": "",
    "rating": null,
    "review_count": null
  },
  {
    "osm_id": 1268818291,
    "osm_type": "node",
    "name": "Villa Duoro",
    "address": "Ninoofsesteenweg 628, 1701, Itterbeek",
    "lat": 50.8408298,
    "lng": 4.2285259,
    "cuisine": "Portuguese",
    "amenity": "restaurant",
    "website": "",
    "phone": "",
    "opening_hours": "Tu-Su 11:30-22:00, Fr,Sa 11:30-22:30",
    "wheelchair": "",
    "outdoor_seating": "",
    "rating": null,
    "review_count": null
  },
  {
    "osm_id": 1271056432,
    "osm_type": "node",
    "name": "La Molisana",
    "address": "Brussels, Belgium",
    "lat": 50.8254439,
    "lng": 4.3450242,
    "cuisine": "Italian",
    "amenity": "restaurant",
    "website": "",
    "phone": "",
    "opening_hours": "",
    "wheelchair": "",
    "outdoor_seating": "yes",
    "rating": null,
    "review_count": null
  },
  {
    "osm_id": 1276838781,
    "osm_type": "node",
    "name": "Les frères Sen",
    "address": "Brussels, Belgium",
    "lat": 50.8714875,
    "lng": 4.344992,
    "cuisine": "Restaurant",
    "amenity": "fast_food",
    "website": "",
    "phone": "",
    "opening_hours": "Mo-Fr 12:00-21:00",
    "wheelchair": "",
    "outdoor_seating": "",
    "rating": null,
    "review_count": null
  },
  {
    "osm_id": 1276916830,
    "osm_type": "node",
    "name": "Forelvijver St-Martin",
    "address": "Blekerijstraat 17, 1700",
    "lat": 50.8470639,
    "lng": 4.2273795,
    "cuisine": "French",
    "amenity": "restaurant",
    "website": "https://www.brasseriesaintmartin.be/",
    "phone": "+32 2 569 31 56",
    "opening_hours": "",
    "wheelchair": "",
    "outdoor_seating": "",
    "rating": null,
    "review_count": null
  },